     2.11           OBSERVATION DATA    G (GPS)             RINEX VERSION / TYPE
teqc  2013Mar15     Grigory Steblov     20161216 00:07:07UTCPGM / RUN BY / DATE
Linux 2.4.21-27.ELsmp|Opteron|gcc -static|Linux x86_64|=+   COMMENT
BIT 2 OF LLI FLAGS DATA COLLECTED UNDER A/S CONDITION       COMMENT
IRKM                                                        MARKER NAME
12313M001                                                   MARKER NUMBER
Dmitry Frolov       RDAAC                                   OBSERVER / AGENCY
LP01756             ASHTECH Z-XII3      CD00                REC # / TYPE / VERS
178                 AOAD/M_T        NONE                    ANT # / TYPE
  -968332.3892  3794425.4085  5018167.7056                  APPROX POSITION XYZ
        0.1280        0.0000        0.0000                  ANTENNA: DELTA H/E/N
     1     1                                                WAVELENGTH FACT L1/2
     7    L1    L2    P1    P2    C1    S1    S2            # / TYPES OF OBSERV
                                                            COMMENT
This data is provided as a public service by                COMMENT
Regional GPS Data Acquisition Analysis Center (RDAAC)       COMMENT
Geophysical Service RAS (GS RAS)                            COMMENT
The data aquisition software is provided by NASA/JPL        COMMENT
No warranty is expressed or implied regarding suitability   COMMENT
for use. For further information, contact:                  COMMENT
Grigory M. Steblov, GS RAS (steblov@gps.gsras.ru)           COMMENT
Dave Stowers, NASA/JPL m/s 238-600                          COMMENT
4800 Oak Grove Drive, Pasadena CA 91109 USA                 COMMENT
                                                            COMMENT
 SNR is mapped to RINEX snr flag value [0-9]                COMMENT
  L1 & L2: min(max(int(snr_dBHz/6), 0), 9)                  COMMENT
pseudorange smoothing corrections not applied               COMMENT
  2016    12    15     0     0    0.0000000     GPS         TIME OF FIRST OBS
                                                            END OF HEADER
 16 12 15  0  0  0.0000000  0  9G05G02G25G19G17G23G06G12G09
  -8579724.35747  -6656055.95446  23103667.0914   23103671.2004   23103666.637
        42.3004         39.9004
 -20374126.28448 -15855741.11747  20814265.4134   20814266.6094   20814265.816
        49.8004         47.3004
 -10562649.78447  -8218721.65846  22859988.8264   22859994.1394   22859988.861
        43.2004         40.6004
  -8338691.52947  -6481349.00147  22594572.3864   22594575.0414   22594573.361
        45.3004         42.5004
  -5710386.05146  -4434299.74546  23647881.3774   23647886.4094   23647881.156
        41.1004         38.6004
  -6241662.31246  -4847147.21646  24132973.3294   24132974.4454   24132974.115
        40.3004         37.8004
 -17146906.75748 -13341581.64448  20686073.0834   20686078.6574   20686072.255
        50.7004         48.0004
 -16084720.29347 -12506602.88247  21752844.7754   21752847.5744   21752844.953
        46.9004         44.2004
  -5638942.08147  -4380168.10046  23077049.7484   23077055.1684   23077049.235
        42.9004         40.0004
 16 12 15  0  0 30.0000000  0  9G05G02G25G19G17G23G06G12G09
  -8687332.34547  -6739906.31246  23083189.7114   23083193.4274   23083188.855
        42.3004         39.7004
 -20404310.06948 -15879260.94647  20808521.5974   20808522.8084   20808521.982
        49.8004         47.3004
 -10595155.95447  -8244051.13346  22853802.9884   22853808.9524   22853802.706
        43.2004         40.6004
  -8244264.52147  -6407769.52847  22612541.8164   22612544.4044   22612542.827
        45.1004         42.3004
  -5612492.29246  -4358018.89946  23666510.4484   23666514.2754   23666510.236
        41.5004         39.0004
  -6225536.43346  -4834581.57946  24136041.9564   24136042.6794   24136042.376
        40.1004         37.6004
 -17104628.86248 -13308637.82747  20694118.0774   20694123.8414   20694117.500
        50.5004         47.8004
 -16041639.99947 -12473033.83847  21761042.6764   21761045.7754   21761042.181
        46.9004         44.0004
  -5683480.30447  -4414873.20546  23068574.2824   23068579.2654   23068574.370
        42.7004         40.0004
 16 12 15  0  1  0.0000000  0  9G05G02G25G19G17G23G06G12G09
  -8794703.34547  -6823572.01546  23062758.2054   23062760.8744   23062757.807
        42.5004         39.9004
 -20434189.67548 -15902543.75247  20802835.9194   20802837.0354   20802836.418
        49.8004         47.2004
 -10627053.80447  -8268906.59946  22847732.9394   22847739.3894   22847733.371
        43.2004         40.7004
  -8149565.25247  -6333977.90447  22630562.3364   22630565.4284   22630562.875
        45.1004         42.3004
  -5514388.82746  -4281574.67146  23685178.3754   23685182.3524   23685179.550
        41.3004         38.5004
  -6208874.12046  -4821597.95146  24139214.0184   24139214.3434   24139214.356
        40.3004         37.9004
 -17062002.82348 -13275422.73347  20702229.2764   20702235.4614   20702228.737
        50.5004         47.7004
 -15997969.35847 -12439004.77047  21769353.2594   21769355.9724   21769353.156
        46.9004         44.0004
  -5727498.55547  -4449173.12746  23060198.0274   23060203.4844   23060197.659
        42.7004         40.0004
 16 12 15  0  1 30.0000000  0  9G05G02G25G19G17G23G06G12G09
  -8901835.45147  -6907051.58046  23042372.0614   23042374.7334   23042371.781
        42.7004         40.0004
 -20463764.62848 -15925589.16547  20797207.9574   20797208.6694   20797208.474
        49.8004         47.3004
 -10658342.01047  -8293287.02446  22841779.4064   22841784.9824   22841779.308
        43.4004         40.7004
  -8054595.08947  -6259975.19747  22648634.9854   22648637.1364   22648635.766
        45.1004         42.3004
  -5416076.92246  -4204968.01946  23703886.9744   23703889.5514   23703886.663
        40.6004         37.9004
  -6191676.09146  -4808196.88946  24142484.9194   24142487.8164   24142485.711
        40.6004         38.1004
 -17019029.37848 -13241936.93647  20710407.0484   20710412.9774   20710406.397
        50.3004         47.7004
 -15953709.93647 -12404516.91447  21777775.6714   21777778.1254   21777774.866
        46.7004         43.9004
  -5770994.58147  -4483066.12946  23051920.8244   23051926.0354   23051920.308
        42.5004         40.0004
 16 12 15  0  2  0.0000000  0  9G05G02G25G19G17G23G06G12G09
  -9008726.44347  -6990343.24846  23022030.7044   23022033.8284   23022030.108
        42.7004         40.2004
 -20493034.50648 -15948396.86647  20791638.0514   20791638.9614   20791638.468
        50.0004         47.5004
 -10689019.50147  -8317191.57546  22835941.1354   22835947.4254   22835941.575
        43.4004         40.7004
  -7959355.54647  -6185762.58147  22666758.7304   22666760.9444   22666759.887
        45.1004         42.5004
  -5317557.62546  -4128199.77046  23722633.9954   23722637.0604   23722632.633
        40.3004         37.4004
  -6173942.23046  -4794378.31346  24145860.9614   24145861.0084   24145860.798
        40.8004         38.5004
 -16975709.45448 -13208181.16047  20718650.7704   20718656.5504   20718650.220
        50.5004         47.8004
 -15908863.63347 -12369571.76347  21786309.5044   21786312.0504   21786309.375
        46.9004         44.0004
  -5813966.48547  -4516550.72946  23043743.2214   23043749.4064   23043742.842
        42.5004         40.0004
 16 12 15  0  2 30.0000000  0  9G05G02G25G19G17G23G06G12G09
  -9115373.99747  -7073445.22646  23001736.5444   23001739.9474   23001735.912
        42.9004         40.2004
 -20521999.18748 -15970966.74647  20786126.0204   20786127.0224   20786126.707
        50.0004         47.5004
 -10719085.22147  -8340619.40946  22830220.1754   22830226.6944   22830220.041
        43.4004         40.9004
  -7863848.34247  -6111341.41247  22684932.6724   22684935.7034   22684933.441
        45.3004         42.3004
  -5218832.91746  -4051271.44646  23741420.9544   23741424.9944   23741420.460
        40.1004         37.8004
  -6155673.25346  -4780142.72646  24149337.4824   24149337.6574   24149337.876
        40.9004         38.6004
 -16932044.00148 -13174156.13847  20726959.9414   20726965.8534   20726959.589
        50.5004         47.8004
 -15863432.58647 -12334170.94747  21794954.6174   21794957.0184   21794954.231
        46.7004         44.0004
  -5856412.33447  -4549625.41846  23035665.8884   23035672.3784   23035666.177
        42.7004         40.2004
 16 12 15  0  3  0.0000000  0  9G05G02G25G19G17G23G06G12G09
  -9221776.01547  -7156355.89046  22981488.8674   22981492.4214   22981488.691
        42.9004         40.2004
 -20550658.10248 -15993298.36847  20780672.7324   20780673.4844   20780673.050
        50.0004         47.5004
 -10748538.13347  -8363569.72846  22824615.3404   22824621.4624   22824615.385
        43.6004         40.9004
  -7768075.27247  -6036713.07047  22703157.8134   22703160.7294   22703158.474
        45.1004         42.3004
  -5119904.09146  -3974184.06946  23760246.8504   23760250.3564   23760247.296
        40.3004         37.9004
  -6136869.47246  -4765490.41946  24152915.2314   24152916.6194   24152915.592
        41.1004         38.6004
 -16888034.00048 -13139862.63447  20735334.7754   20735340.4904   20735334.192
        50.5004         47.8004
 -15817418.07947 -12298315.50047  21803710.7244   21803713.8554   21803710.576
        46.7004         44.0004
  -5898330.26447  -4582288.73746  23027689.0794   23027695.0394   23027689.161
        42.7004         40.2004
 16 12 15  0  3 30.0000000  0  9G05G02G25G19G17G23G06G12G09
  -9327930.02647  -7239073.30146  22961287.9414   22961291.8664   22961286.637
        42.7004         40.0004
 -20579011.01648 -16015391.55247  20775277.2464   20775278.1174   20775277.621
        50.0004         47.5004
 -10777377.13847  -8386041.67946  22819127.6474   22819133.5764   22819127.829
        43.6004         40.9004
  -7672037.41647  -5961878.40647  22721432.9454   22721436.2684   22721434.080
        45.1004         42.5004
  -5020772.52846  -3896938.72346  23779109.9604   23779114.8354   23779109.276
        40.3004         37.8004
  -6117531.09846  -4750421.55546  24156595.8144   24156596.7554   24156595.845
        41.1004         38.5004
 -16843680.30548 -13105301.31647  20743775.0604   20743780.6754   20743774.433
        50.3004         47.7004
 -15770822.01647 -12262006.88647  21812577.6784   21812580.5024   21812577.363
        46.7004         43.9004
  -5939718.31647  -4614539.16546  23019813.1484   23019818.8844   23019813.594
        42.9004         40.2004
 16 12 15  0  4  0.0000000  0  9G05G02G25G19G17G23G06G12G09
  -9433834.14247  -7321595.99046  22941135.4304   22941138.9204   22941134.906
        42.9004         40.2004
 -20607057.66948 -16037246.08747  20769940.1734   20769940.9674   20769940.413
        50.0004         47.5004
 -10805601.24347  -8408034.49346  22813757.2584   22813762.3724   22813756.763
        43.6004         41.1004
  -7575736.28947  -5886838.59147  22739759.4524   22739761.8254   22739760.016
        45.3004         42.5004
  -4921439.65246  -3819536.52946  23798012.6914   23798017.6694   23798012.784
        40.3004         37.9004
  -6097659.10046  -4734936.87546  24160376.5964   24160377.9734   24160377.449
        41.1004         38.5004
 -16798983.83548 -13070472.90447  20752280.5064   20752286.2544   20752279.971
        50.3004         47.8004
 -15723646.06347 -12225246.40847  21821554.8164   21821557.7794   21821554.939
        46.7004         43.9004
  -5980574.58647  -4646375.21346  23012039.3844   23012043.9954   23012038.403
        43.0004         40.4004
 16 12 15  0  4 30.0000000  0  9G05G02G25G19G17G23G06G12G09
  -9539486.05547  -7403922.15146  22921030.3254   22921034.1504   22921030.804
        43.0004         40.4004
 -20634797.28148 -16058861.36547  20764661.2934   20764662.2324   20764661.815
        50.0004         47.5004
 -10833209.52547  -8429547.44546  22808503.0364   22808509.0324   22808502.902
        43.6004         40.9004
  -7479173.71547  -5811595.05447  22758134.1504   22758137.0844   22758134.911
        45.1004         42.1004
  -4821906.65746  -3741978.40646  23816953.4094   23816957.9794   23816952.739
        40.6004         38.3004
  -6077253.78546  -4719036.63446  24164260.2654   24164260.1394   24164260.067
        40.8004         38.1004
 -16753945.56448 -13035378.14547  20760850.8744   20760856.7714   20760850.053
        50.3004         47.5004
 -15675892.15447 -12188035.58347  21830642.5204   21830644.9054   21830642.490
        46.7004         43.9004
  -6020897.27847  -4677795.48846  23004365.8204   23004371.2184   23004366.246
        43.0004         40.4004
 16 12 15  0  5  0.0000000  0  9G05G02G25G19G17G23G06G12G09
  -9644883.42147  -7486049.96546  22900973.6834   22900977.7564   22900973.220
        43.0004         40.4004
 -20662229.42248 -16080237.06247  20759441.1724   20759441.9724   20759441.670
        50.0004         47.5004
 -10860200.76447  -8450579.58446  22803366.9244   22803372.6624   22803367.051
        43.6004         40.9004
  -7382350.70147  -5736148.57946  22776558.1304   22776561.4784   22776559.482
        44.8004         41.9004
  -4722175.15746  -3664265.58846  23835933.0314   23835935.8824   23835932.463
        40.9004         38.6004
  -6056315.44246  -4702721.05146  24168244.2584   24168244.9054   24168244.815
        40.8004         38.3004
 -16708566.18648 -13000017.59447  20769486.3264   20769492.2084   20769485.765
        50.3004         47.7004
 -15627562.28247 -12150375.95747  21839838.7254   21839842.1064   21839838.481
        46.5004         43.7004
  -6060684.28847  -4708798.34646  22996794.6094   22996799.9034   22996794.387
        43.0004         40.6004
 16 12 15  0  5 30.0000000  0  9G05G02G25G19G17G23G06G12G09
  -9750024.32747  -7567977.94146  22880965.8604   22880969.6334   22880964.912
        43.0004         40.6004
 -20689354.34348 -16101373.36547  20754279.3764   20754280.3674   20754279.975
        50.0004         47.5004
 -10886574.24447  -8471130.35446  22798347.7354   22798353.8984   22798348.351
        43.6004         40.9004
  -7285269.20947  -5660500.68146  22795032.5864   22795035.1274   22795033.460
        44.8004         41.9004
  -4622246.89546  -3586399.45246  23854947.7274   23854951.4254   23854946.585
        40.9004         38.5004
  -6034845.22246  -4685990.99346  24172329.5144   24172330.5704   24172330.114
        40.6004         38.1004
 -16662846.84648 -12964392.13947  20778186.4784   20778192.4684   20778185.927
        50.3004         47.7004
 -15578658.58947 -12112269.19147  21849145.3784   21849148.1574   21849145.040
        46.5004         43.9004
  -6099934.03547  -4739382.55746  22989325.7184   22989330.8854   22989325.409
        43.2004         40.7004
 16 12 15  0  6  0.0000000  0  9G05G02G25G19G17G23G06G12G09
  -9854906.52447  -7649704.32746  22861007.6714   22861011.5774   22861007.366
        43.2004         40.7004
 -20716171.47848 -16122269.83547  20749176.4324   20749177.5294   20749176.906
        50.0004         47.5004
 -10912329.10147  -8491199.07546  22793446.5714   22793453.1774   22793446.852
        43.6004         40.9004
  -7187930.74447  -5584652.53746  22813555.5794   22813558.4104   22813556.046
        44.6004         41.8004
  -4522123.19246  -3508381.01846  23874000.1034   23874004.0814   23873999.946
        40.9004         38.5004
  -6012843.07946  -4668846.45446  24176516.8794   24176517.9054   24176517.121
        40.4004         37.9004
 -16616788.51248 -12928502.53447  20786951.0934   20786957.1444   20786950.246
        50.3004         47.7004
 -15529183.37947 -12073717.09747  21858560.1474   21858562.9954   21858559.799
        46.5004         43.9004
  -6138644.76847  -4769546.76346  22981959.6564   22981965.0284   22981959.376
        43.6004         41.1004
 16 12 15  0  6 30.0000000  0  9G05G02G25G19G17G23G06G12G09
  -9959527.77047  -7731227.35746  22841099.4134   22841102.9894   22841098.869
        43.2004         40.7004
 -20742680.23548 -16142926.00447  20744131.8664   20744132.7674   20744132.531
        50.2004         47.7004
 -10937464.33547  -8510784.98246  22788663.8734   22788670.1934   22788663.949
        43.6004         41.1004
  -7090336.79547  -5508605.31946  22832127.0184   22832130.1614   22832127.442
        44.6004         41.9004
  -4421805.32746  -3430211.27846  23893090.8484   23893094.6774   23893090.211
        40.6004         37.9004
  -5990309.88246  -4651288.11946  24180804.7284   24180806.1624   24180804.400
        40.4004         38.1004
 -16570392.00948 -12892349.41447  20795779.8454   20795786.0504   20795779.498
        50.2004         47.7004
 -15479137.76547 -12034720.52147  21868083.2954   21868086.2354   21868083.267
        46.5004         43.9004
  -6176814.55247  -4799289.43846  22974695.9944   22974701.3804   22974696.168
        43.6004         41.1004
 16 12 15  0  7  0.0000000  0  9G05G02G25G19G17G23G06G12G09
 -10063885.94047  -7812545.40846  22821240.4244   22821244.3174   22821240.042
        43.4004         40.9004
 -20768880.62848 -16163341.89847  20739145.9454   20739146.9234   20739146.470
        50.2004         47.7004
 -10961979.24847  -8529887.51846  22783999.2764   22784005.1244   22783999.273
        43.7004         41.1004
  -6992489.27547  -5432360.52846  22850747.0414   22850749.8354   22850747.835
        44.6004         41.9004
  -4321294.89146  -3351891.48946  23912217.6234   23912220.5444   23912217.391
        39.7004         37.1004
  -5967246.09246  -4633316.33346  24185192.3234   24185194.2134   24185193.035
        40.3004         37.8004
 -16523658.42348 -12855933.63247  20804673.0194   20804678.9394   20804672.499
        50.2004         47.7004
 -15428523.67747 -11995280.98147  21877714.7334   21877717.7484   21877714.663
        46.5004         43.7004
  -6214441.82747  -4828609.37946  22967535.0894   22967540.9884   22967535.230
        43.6004         40.9004
 16 12 15  0  7 30.0000000  0  9G05G02G25G19G17G23G06G12G09
 -10167978.71647  -7893656.66746  22801432.0734   22801435.5084   22801431.315
        43.4004         40.9004
 -20794772.16248 -16183517.12247  20734219.1474   20734220.0294   20734219.647
        50.2004         47.7004
 -10985872.84147  -8548505.89546  22779452.0194   22779458.3694   22779452.091
        43.7004         41.1004
  -6894389.36847  -5355919.06546  22869415.2644   22869417.2414   22869416.309
        44.6004         41.8004
  -4220593.23046  -3273422.70846  23931380.4364   23931383.4014   23931379.941
        39.2004         36.7004
  -5943652.32446  -4614931.58646  24189682.8654   24189683.4574   24189683.326
        40.1004         37.8004
 -16476588.54448 -12819255.81447  20813630.0964   20813636.0534   20813629.701
        50.2004         47.5004
 -15377343.34447 -11955400.20647  21887454.1464   21887457.4924   21887453.742
        46.3004         43.7004
  -6251524.67047  -4857505.08546  22960477.9454   22960484.7784   22960478.505
        43.4004         40.7004
 16 12 15  0  8  0.0000000  0  9G05G02G25G19G17G23G06G12G09
 -10271804.29047  -7974559.71246  22781674.7134   22781678.7954   22781673.793
        43.6004         40.9004
 -20820354.19648 -16203451.17747  20729351.1824   20729352.0104   20729351.752
        50.2004         47.7004
 -11009144.21947  -8566639.45246  22775023.9904   22775029.6124   22775023.950
        43.7004         41.2004
  -6796038.71447  -5279282.21846  22888130.8244   22888132.4754   22888131.618
        44.6004         41.9004
  -4119701.63746  -3194805.89946  23950579.8884   23950583.1804   23950579.775
        39.2004         37.1004
  -5919529.20746  -4596134.34046  24194274.3324   24194274.3134   24194274.504
        40.3004         38.1004
 -16429183.24148 -12782316.63047  20822651.3284   20822656.7704   20822650.580
        50.2004         47.5004
 -15325599.13247 -11915080.05547  21897301.3704   21897303.3184   21897300.840
        46.3004         43.7004
  -6288061.26647  -4885975.14146  22953526.4224   22953531.8704   22953525.990
        43.4004         40.7004
 16 12 15  0  8 30.0000000  0  9G05G02G25G19G17G23G06G12G09
 -10375360.12447  -8055252.56646  22761968.9214   22761973.1554   22761969.487
        43.7004         41.2004
 -20845626.62548 -16223143.97447  20724541.7584   20724542.7934   20724542.304
        50.2004         47.7004
 -11031792.65347  -8584287.58446  22770713.6894   22770719.8884   22770714.213
        43.7004         41.1004
  -6697438.87547  -5202451.19946  22906893.2554   22906896.1504   22906894.390
        44.6004         41.9004
  -4018621.99146  -3116042.54346  23969812.7324   23969818.1274   23969812.352
        39.2004         37.1004
  -5894877.30246  -4576925.05346  24198963.6854   24198966.8064   24198964.282
        40.3004         37.9004
 -16381443.45648 -12745116.79747  20831735.5194   20831741.5934   20831734.986
        50.2004         47.5004
 -15273293.07547 -11874322.10047  21907254.2784   21907256.9064   21907253.956
        46.3004         43.7004
  -6324049.99747  -4914018.29446  22946678.0934   22946683.8354   22946677.426
        43.6004         41.1004
 16 12 15  0  9  0.0000000  0  9G05G02G25G19G17G23G06G12G09
 -10478644.23147  -8135733.67946  22742314.3794   22742318.3464   22742314.823
        43.7004         41.1004
 -20870588.99848 -16242595.17547  20719791.5284   20719792.6704   20719792.011
        50.2004         47.7004
 -11053817.34547  -8601449.68646  22766522.3974   22766528.7274   22766522.706
        43.7004         41.1004
  -6598591.39247  -5125427.21546  22925704.0664   22925706.2564   22925704.579
        44.6004         41.9004
  -3917355.52746  -3037133.62046  23989082.4854   23989088.9154   23989082.446
        39.4004         36.9004
  -5869697.54346  -4557304.47246  24203756.5344   24203757.5864   24203756.889
        40.1004         37.8004
 -16333370.15048 -12707657.08947  20840883.8694   20840889.7464   20840883.044
        50.2004         47.5004
 -15220426.37047 -11833127.27647  21917314.5484   21917317.2684   21917314.269
        46.3004         43.5004
  -6359489.14847  -4941633.21046  22939933.8664   22939939.8384   22939933.434
        43.7004         41.1004
 16 12 15  0  9 30.0000000  0  9G05G02G25G19G17G23G06G12G09
 -10581654.68647  -8216001.56946  22722711.7604   22722715.1934   22722711.520
        43.7004         40.9004
 -20895241.05948 -16261804.57247  20715100.6884   20715101.4934   20715101.156
        50.2004         47.7004
 -11075217.61747  -8618125.22846  22762450.5894   22762456.6894   22762450.490
        43.9004         41.2004
  -6499497.66447  -5048211.35546  22944560.9204   22944563.3554   22944561.376
        44.6004         41.9004
  -3815903.73346  -2958080.32046  24008390.0374   24008395.0334   24008389.733
        39.6004         37.4004
  -5843990.50246  -4537272.97746  24208648.9744   24208648.0004   24208648.814
        39.9004         37.4004
 -16284964.28548 -12669938.24247  20850095.3494   20850100.9494   20850094.721
        50.2004         47.5004
 -15167001.60347 -11791497.59747  21927480.9914   21927484.2724   21927480.660
        46.3004         43.7004
  -6394377.15247  -4968818.66046  22933295.1754   22933300.8544   22933294.684
        43.7004         41.1004
 16 12 15  0 10  0.0000000  0  9G05G02G25G19G17G23G06G12G09
 -10684389.03147  -8296054.29846  22703161.9904   22703165.9634   22703161.386
        43.7004         41.1004
 -20919582.32148 -16280771.77847  20710468.7074   20710469.6154   20710469.012
        50.2004         47.7004
 -11095992.80247  -8634313.68146  22758497.0534   22758503.0304   22758497.099
        43.9004         41.2004
  -6400159.63447  -4970805.11746  22963463.5904   22963466.3934   22963464.935
        44.4004         41.6004
  -3714267.97046  -2878883.67146  24027731.6574   24027735.2184   24027730.002
        39.9004         37.8004
  -5817756.85846  -4516831.16246  24213640.1934   24213641.3954   24213640.587
        39.6004         37.1004
 -16236226.85048 -12631961.03047  20859369.7154   20859375.5344   20859369.218
        50.2004         47.5004
 -15113021.10747 -11749434.88447  21937753.5154   21937756.3674   21937753.176
        46.3004         43.7004
  -6428712.37547  -4995573.36246  22926761.3434   22926766.6944   22926760.937
        43.7004         40.9004
 16 12 15  0 10 30.0000000  0  9G05G02G25G19G17G23G06G12G09
 -10786845.14447  -8375890.23346  22683665.6424   22683668.8584   22683665.416
        43.9004         41.2004
 -20943612.64548 -16299496.70647  20705895.5324   20705896.6204   20705896.094
        50.2004         47.7004
 -11116142.02447  -8650014.38146  22754662.9794   22754669.2584   22754662.820
        43.9004         41.2004
  -6300578.64647  -4893209.57246  22982413.6244   22982416.4224   22982413.972
        44.2004         41.4004
  -3612449.99046  -2799545.03146  24047107.2004   24047110.2074   24047107.409
        40.4004         38.1004
  -5790997.43446  -4495979.66946  24218732.4694   24218734.6844   24218732.014
        39.4004         37.1004
 -16187158.62248 -12593726.05047  20868706.7614   20868712.7464   20868706.405
        50.0004         47.3004
 -15058486.78947 -11706940.61447  21948130.3914   21948133.7074   21948130.087
        46.3004         43.5004
  -6462493.06947  -5021895.96346  22920332.9424   22920338.7094   22920332.643
        43.7004         41.1004
 16 12 15  0 11  0.0000000  0  9G05G02G25G19G17G23G06G12G09
 -10889021.01447  -8455507.79446  22664222.3264   22664226.0154   22664222.478
        43.9004         41.2004
 -20967331.52148 -16317978.94847  20701381.9674   20701383.1194   20701382.599
        50.2004         47.7004
 -11135664.78447  -8665226.92346  22750947.4254   22750953.4534   22750947.803
        43.9004         41.2004
  -6200756.45747  -4815426.07046  23001409.0854   23001411.8984   23001409.891
        44.1004         41.2004
  -3510451.33946  -2720065.58846  24066515.9014   24066519.6644   24066514.950
        40.6004         38.1004
  -5763713.10646  -4474719.16246  24223924.9524   24223926.0814   24223924.793
        39.4004         36.7004
 -16137760.63848 -12555234.12347  20878106.8744   20878112.7564   20878106.584
        50.0004         47.3004
 -15003400.69647 -11664016.39747  21958613.2504   21958615.8684   21958613.175
        46.3004         43.5004
  -6495717.70847  -5047785.27146  22914010.6434   22914016.1244   22914010.365
        43.7004         41.2004
 16 12 15  0 11 30.0000000  0  9G05G02G25G19G17G23G06G12G09
 -10990914.26547  -8534905.12546  22644832.8264   22644836.8564   22644832.500
        44.1004         41.6004
 -20990738.40948 -16336218.08147  20696928.0974   20696928.8034   20696928.452
        50.3004         47.7004
 -11154560.37747  -8679950.76446  22747352.2184   22747357.9564   22747352.115
        43.9004         41.2004
  -6100694.30547  -4737455.58746  23020450.7844   23020452.8904   23020451.384
        44.1004         41.2004
  -3408273.26446  -2640446.34946  24085960.3474   24085964.0564   24085959.536
        40.4004         37.9004
  -5735904.37446  -4453050.00346  24229215.2524   24229216.6664   24229216.208
        39.0004         36.6004
 -16088033.82248 -12516485.96247  20887569.7074   20887575.5584   20887569.107
        49.8004         47.2004
 -14947765.07747 -11620663.98247  21969200.8444   21969203.1644   21969200.720
        46.2004         43.3004
  -6528384.69847  -5073240.06146  22907793.3934   22907800.3404   22907793.512
        43.7004         41.2004
 16 12 15  0 12  0.0000000  0  9G05G02G25G19G17G23G06G12G09
 -11092523.05147  -8614080.80146  22625497.3424   22625501.6314   22625496.958
        44.2004         41.8004
 -21013833.15948 -16354213.99047  20692533.1364   20692534.0034   20692533.709
        50.2004         47.7004
 -11172828.23247  -8694185.45646  22743876.0944   22743882.0774   22743876.147
        43.9004         41.4004
  -6000394.08647  -4659299.59646  23039536.7194   23039538.9374   23039537.706
        43.9004         41.2004
  -3305917.53746  -2560688.68146  24105437.7034   24105442.8644   24105436.538
        39.9004         37.4004
  -5707571.95746  -4430972.79546  24234606.1154   24234608.8164   24234606.447
        38.5004         36.2004
 -16037979.12648 -12477482.30847  20897094.7554   20897100.7124   20897094.063
        49.8004         47.0004
 -14891582.56247 -11576885.40547  21979891.2744   21979894.1114   21979891.384
        46.2004         43.3004
  -6560492.53347  -5098259.15146  22901684.3334   22901690.6924   22901684.335
        43.9004         41.2004
 16 12 15  0 12 30.0000000  0  9G05G02G25G19G17G23G06G12G09
 -11193845.27247  -8693033.17046  22606216.5254   22606219.9044   22606215.880
        44.2004         41.8004
 -21036615.36748 -16371966.35747  20688197.9344   20688198.8584   20688198.509
        50.2004         47.7004
 -11190467.64247  -8707930.45146  22740519.4074   22740525.2944   22740519.005
        43.9004         41.2004
  -5899857.35847  -4580959.31946  23058668.6904   23058671.1674   23058668.784
        44.1004         41.4004
  -3203385.26046  -2480793.44546  24124947.2054   24124952.2894   24124946.779
        39.2004         36.4004
  -5678716.97146  -4408488.39346  24240099.6874   24240099.5574   24240100.014
        38.7004         36.4004
 -15987597.42348 -12438223.84247  20906681.9444   20906688.0284   20906681.225
        49.6004         47.0004
 -14834854.47547 -11532681.70847  21990686.4764   21990689.3144   21990686.031
        46.0004         43.3004
  -6592039.56047  -5122841.23146  22895680.6974   22895686.7594   22895680.958
        43.7004         41.2004
 16 12 15  0 13  0.0000000  0 10G05G02G29G25G19G17G23G06G12G09
 -11294878.82847  -8771760.61846  22586990.4274   22586994.0404   22586989.949
        44.4004         41.8004
 -21059085.02548 -16389475.18647  20683921.9944   20683922.7504   20683922.623
        50.3004         47.7004
  -1496114.67246  -1149442.44446  24612953.1204   24612955.7844   24612953.090
        39.0004         36.6004
 -11207478.24947  -8721185.47446  22737281.8234   22737287.9284   22737281.875
        43.9004         41.2004
  -5799085.79747  -4502436.05346  23077843.8404   23077847.3344   23077844.952
        43.9004         41.2004
  -3100678.35546  -2400762.13446  24144491.6524   24144496.9994   24144491.690
        38.7004         36.4004
  -5649340.27246  -4385597.45546  24245689.3174   24245689.9304   24245689.821
        38.5004         36.2004
 -15936889.82848 -12398711.44147  20916331.6064   20916337.1194   20916331.063
        49.8004         47.0004
 -14777583.90647 -11488055.30247  22001584.7414   22001587.4124   22001584.528
        46.2004         43.3004
  -6623024.51147  -5146985.33146  22889784.2654   22889790.8134   22889784.604
        43.7004         41.1004
 16 12 15  0 13 30.0000000  0 10G05G02G29G25G19G17G23G06G12G09
 -11395621.43847  -8850261.34946  22567820.0164   22567822.7274   22567819.460
        44.4004         41.8004
 -21081241.26448 -16406739.78247  20679705.5934   20679706.8234   20679706.177
        50.2004         47.7004
  -1603553.78446  -1233161.21246  24592507.7604   24592510.5694   24592507.348
        38.5004         36.0004
 -11223859.32347  -8733949.94946  22734164.9234   22734170.7184   22734164.846
        43.9004         41.2004
  -5698080.91147  -4423730.97446  23097064.8604   23097067.9054   23097065.942
        43.7004         41.1004
  -2997797.95046  -2320595.61346  24164070.0034   24164072.9824   24164069.821
        38.5004         36.4004
  -5619442.24546  -4362300.31245  24251377.9094   24251377.8264   24251377.596
        38.2004         35.9004
 -15885857.07048 -12358945.66047  20926042.8954   20926048.5624   20926042.178
        49.6004         47.0004
 -14719772.46447 -11443007.43647  22012586.2754   22012589.0474   22012586.161
        46.2004         43.3004
  -6653445.62947  -5170690.08146  22883995.6734   22884001.6734   22883995.024
        43.7004         41.1004
 16 12 15  0 14  0.0000000  0 10G05G02G29G25G19G17G23G06G12G09
 -11496071.05247  -8928533.76246  22548704.0844   22548707.8244   22548704.688
        44.6004         41.9004
 -21103084.20348 -16423760.26147  20675549.3274   20675550.1674   20675549.571
        50.3004         47.8004
  -1710923.57346  -1316825.96345  24572075.8644   24572078.1594   24572075.375
        38.0004         35.9004
 -11239610.29347  -8746223.43446  22731167.5544   22731173.5814   22731167.545
        43.9004         41.2004
  -5596844.23447  -4344845.26446  23116329.7934   23116333.0234   23116331.076
        43.7004         41.2004
  -2894745.78346  -2240295.28646  24183682.6634   24183683.6654   24183683.520
        38.7004         36.6004
  -5589024.35246  -4338598.06546  24257167.5134   24257167.0204   24257167.282
        38.3004         36.0004
 -15834500.15748 -12318927.29347  20935815.8434   20935821.3554   20935815.187
        49.8004         47.2004
 -14661422.03447 -11397539.57447  22023689.4534   22023692.6244   22023689.518
        46.2004         43.5004
  -6683301.50447  -5193954.38846  22878314.3504   22878320.3214   22878314.106
        43.7004         41.1004
 16 12 15  0 14 30.0000000  0 10G05G02G29G25G19G17G23G06G12G09
 -11596225.98347  -9006576.56246  22529645.6854   22529648.6964   22529645.058
        44.6004         41.8004
 -21124613.26648 -16440536.15447  20671452.6704   20671453.2234   20671453.064
        50.3004         47.8004
  -1818222.45246  -1400435.47045  24551658.2304   24551660.4084   24551657.005
        37.6004         35.5004
 -11254730.96047  -8758005.77346  22728290.1024   22728296.0194   22728290.208
        43.9004         41.2004
  -5495377.68247  -4265780.46846  23135638.8514   23135640.6214   23135639.453
        43.7004         41.2004
  -2791523.52346  -2159862.42646  24203325.2764   24203327.1714   24203325.895
        39.0004         36.7004
  -5558087.16046  -4314491.14046  24263055.2404   24263054.5814   24263055.419
        38.5004         36.4004
 -15782820.10848 -12278657.13347  20945650.2604   20945655.8634   20945649.336
        49.8004         47.2004
 -14602535.50547 -11351653.97647  22034895.7894   22034897.9964   22034895.153
        46.2004         43.5004
  -6712590.80147  -5216777.20346  22872740.5614   22872746.3004   22872740.230
        43.7004         40.9004
 16 12 15  0 15  0.0000000  0 10G05G02G29G25G19G17G23G06G12G09
 -11696083.47747  -9084387.58346  22510643.2844   22510647.0464   22510643.348
        44.6004         41.9004
 -21145828.05248 -16457067.15547  20667415.4514   20667416.3294   20667415.837
        50.3004         47.8004
  -1925448.06146  -1483987.86745  24531254.6344   24531255.1244   24531252.949
        37.0004         34.8004
 -11269220.71047  -8769296.49346  22725532.9034   22725538.7944   22725533.286
        43.9004         41.4004
  -5393682.34947  -4186537.37846  23154990.6004   23154992.2054   23154991.308
        43.7004         41.1004
  -2688132.47446  -2079298.01546  24222999.1634   24223001.9164   24222998.528
        38.9004         36.6004
  -5526631.65246  -4289980.37046  24269038.4534   24269040.9494   24269039.308
        38.3004         36.0004
 -15730817.80248 -12238135.85847  20955545.9214   20955551.4834   20955545.517
        49.6004         47.2004
 -14543115.14247 -11305352.40447  22046203.2834   22046205.8244   22046202.962
        46.2004         43.5004
  -6741312.04247  -5239157.38946  22867275.6804   22867280.7764   22867275.246
        43.6004         40.9004
 16 12 15  0 15 30.0000000  0 10G05G02G29G25G19G17G23G06G12G09
 -11795641.75747  -9161965.46146  22491698.3564   22491701.5194   22491698.368
        44.6004         41.9004
 -21166728.22448 -16473353.01048  20663438.2664   20663439.2214   20663438.732
        50.3004         48.0004
  -2032599.45546  -1567482.43145  24510862.7894   24510867.1034   24510862.733
        36.6004         34.8004
 -11283079.10347  -8780095.24446  22722895.8044   22722901.4814   22722895.858
        44.1004         41.4004
  -5291760.06347  -4107117.44946  23174385.0644   23174387.9384   23174386.009
        43.7004         40.9004
  -2584574.29346  -1998603.31646  24242704.1834   24242709.9144   24242702.932
        38.9004         36.7004
  -5494658.92646  -4265066.57746  24275125.1744   24275125.0924   24275124.565
        38.5004         36.4004
 -15678494.19648 -12197364.22947  20965502.6714   20965508.3214   20965502.079
        49.6004         47.0004
 -14483163.18947 -11258636.60347  22057611.1324   22057614.5164   22057610.667
        46.2004         43.3004
  -6769463.81847  -5261093.82746  22861918.9434   22861923.1884   22861918.413
        43.6004         40.9004
 16 12 15  0 16  0.0000000  0 10G05G02G29G25G19G17G23G06G12G09
 -11894898.55347  -9239308.41547  22472810.4914   22472813.6524   22472810.294
        44.8004         42.1004
 -21187313.71348 -16489393.65048  20659520.9664   20659521.8824   20659521.503
        50.5004         48.0004
  -2139673.85746  -1650917.01845  24490487.8304   24490490.7344   24490488.119
        36.4004         34.6004
 -11296305.77947  -8790401.74646  22720378.9674   22720384.8894   22720378.747
        44.1004         41.2004
  -5189612.47847  -4027521.96646  23193823.1924   23193825.7834   23193824.222
        43.6004         40.9004
  -2480850.54446  -1917779.62846  24262441.3414   24262446.5794   24262440.628
        38.9004         36.7004
  -5462169.68246  -4239750.30246  24281305.5814   24281306.4164   24281306.702
        38.3004         36.2004
 -15625850.25848 -12156342.98847  20975520.2974   20975526.2214   20975519.513
        49.6004         47.0004
 -14422681.97547 -11211508.39447  22069120.4794   22069123.2914   22069120.249
        46.0004         43.2004
  -6797044.79447  -5282585.48546  22856669.3024   22856674.3774   22856669.267
        43.6004         40.9004
 16 12 15  0 16 30.0000000  0 10G05G02G29G25G19G17G23G06G12G09
 -11993852.10647  -9316415.07647  22453979.6334   22453983.5104   22453979.765
        44.8004         42.1004
 -21207583.92548 -16505188.62148  20655663.6244   20655664.5574   20655664.273
        50.5004         48.0004
  -2246669.51846  -1734290.25745  24470127.0184   24470127.8804   24470126.535
        36.6004         34.8004
 -11308900.28847  -8800215.65246  22717982.6384   22717988.0694   22717982.622
        44.1004         41.4004
  -5087241.23047  -3947752.17746  23213303.2864   23213306.5044   23213304.784
        43.6004         40.7004
  -2376962.34846  -1836827.83046  24282211.8434   24282216.6954   24282211.965
        39.4004         37.3004
  -5429164.93246  -4214032.32846  24287586.7594   24287587.5174   24287587.057
        38.5004         36.2004
 -15572886.87248 -12115072.83047  20985598.9194   20985604.8024   20985598.365
        49.5004         46.8004
 -14361673.62747 -11163969.44147  22080729.9964   22080732.6864   22080729.911
        46.0004         43.2004
  -6824053.57147  -5303631.27046  22851530.2584   22851535.4604   22851529.800
        43.6004         41.1004
 16 12 15  0 17  0.0000000  0 10G05G02G29G25G19G17G23G06G12G09
 -12092499.87947  -9393283.46047  22435207.4114   22435211.4004   22435207.225
        44.9004         42.1004
 -21227538.46048 -16520737.61147  20651866.3694   20651867.3504   20651866.833
        50.5004         47.8004
  -2353584.74046  -1817600.83745  24449780.4544   24449784.8084   24449782.247
        36.6004         34.8004
 -11320862.29847  -8809536.70346  22715705.9504   22715711.6674   22715705.861
        44.1004         41.4004
  -4984648.04347  -3867809.45146  23232827.2394   23232829.7004   23232828.802
        43.4004         40.7004
  -2272911.59246  -1755749.40146  24302013.0874   24302016.0584   24302012.481
        39.6004         37.3004
  -5395645.72446  -4187913.46146  24293965.6724   24293966.0724   24293965.276
        38.5004         36.4004
 -15519605.00648 -12073554.49947  20995738.2194   20995744.0414   20995737.717
        49.5004         46.8004
 -14300140.51947 -11116021.57147  22092439.4824   22092442.2234   22092439.134
        46.0004         43.2004
  -6850488.78747  -5324230.13146  22846499.4744   22846505.6384   22846499.611
        43.7004         41.1004
 16 12 15  0 17 30.0000000  0 10G05G02G29G25G19G17G23G06G12G09
 -12190840.14547  -9469912.23447  22416494.1434   22416497.8734   22416493.596
        44.9004         42.1004
 -21247177.09548 -16536040.45348  20648129.1804   20648130.3614   20648129.719
        50.5004         48.0004
  -2460417.70746  -1900847.33845  24429451.3024   24429455.2234   24429451.697
        36.8004         35.0004
 -11332191.51147  -8818364.66046  22713549.9184   22713556.0134   22713550.135
        44.1004         41.4004
  -4881834.42847  -3787694.96646  23252391.9384   23252394.5884   23252392.065
        43.2004         40.6004
  -2168700.10346  -1674545.69846  24321843.2864   24321847.1364   24321841.607
        39.6004         37.1004
  -5361613.01346  -4161394.48346  24300441.5314   24300442.8394   24300442.677
        38.5004         36.4004
 -15466005.66248 -12031788.78947  21005937.8824   21005943.7134   21005937.159
        49.5004         47.0004
 -14238085.42247 -11067666.97047  22104248.0974   22104250.7424   22104248.031
        46.0004         43.3004
  -6876349.21747  -5344381.10846  22841578.7694   22841584.8354   22841578.690
        43.9004         41.4004
 16 12 15  0 18  0.0000000  0 10G05G02G29G25G19G17G23G06G12G09
 -12288870.78847  -9546299.75147  22397840.2664   22397843.4514   22397840.159
        44.9004         42.5004
 -21266499.50648 -16551096.87348  20644452.3184   20644453.3044   20644452.856
        50.5004         48.0004
  -2567166.01446  -1984027.84745  24409138.1414   24409142.3164   24409138.254
        37.1004         35.3004
 -11342887.53147  -8826699.23346  22711514.6684   22711520.9674   22711514.693
        44.1004         41.4004
  -4778801.81447  -3707409.84546  23271997.5884   23272000.5064   23271998.631
        42.9004         40.0004
  -2064329.09846  -1593217.73346  24341703.4684   24341709.2324   24341703.156
        39.4004         36.9004
  -5327067.90046  -4134476.22146  24307016.1764   24307016.1454   24307014.980
        38.7004         36.4004
 -15412089.65048 -11989776.32247  21016197.7894   21016203.2324   21016197.137
        49.5004         46.8004
 -14175510.26247 -11018907.11747  22116155.3374   22116158.2204   22116155.727
        46.0004         43.3004
  -6901633.45247  -5364083.10246  22836766.8154   22836773.1424   22836766.713
        43.9004         41.1004
 16 12 15  0 18 30.0000000  0 10G05G02G29G25G19G17G23G06G12G09
 -12386589.99247  -9622444.58547  22379244.6914   22379247.7104   22379244.043
        45.1004         42.5004
 -21285505.72648 -16565906.91448  20640835.6414   20640836.5154   20640836.377
        50.5004         48.0004
  -2673828.14246  -2067141.21545  24388840.3454   24388843.2574   24388840.732
        37.6004         35.7004
 -11352950.35147  -8834540.39646  22709599.8814   22709605.7724   22709599.604
        44.1004         41.4004
  -4675552.19147  -3626955.62246  23291645.9084   23291648.0214   23291646.802
        42.9004         40.2004
  -1959800.26346  -1511766.74446  24361594.8904   24361600.1664   24361595.285
        38.9004         36.4004
  -5292011.65746  -4107159.67246  24313686.1484   24313688.0204   24313686.624
        38.7004         36.6004
 -15357858.17148 -11947518.03647  21026517.7504   21026523.3154   21026517.343
        49.5004         46.8004
 -14112417.80547 -10969744.17547  22128161.4444   22128165.0214   22128161.155
        46.0004         43.3004
  -6926340.47447  -5383335.30946  22832065.3524   22832071.3024   22832065.185
        43.9004         41.2004
 16 12 15  0 19  0.0000000  0 10G05G02G29G25G19G17G23G06G12G09
 -12483995.57947  -9698345.04347  22360708.8134   22360712.2864   22360708.880
        45.1004         42.5004
 -21304194.73948 -16580469.78048  20637279.1444   20637280.0404   20637279.680
        50.5004         48.0004
  -2780402.24446  -2150186.00846  24368560.6474   24368564.3964   24368561.454
        38.3004         36.4004
 -11362379.49547  -8841887.77646  22707805.2354   22707811.5194   22707805.435
        44.1004         41.4004
  -4572087.26647  -3546333.62246  23311334.9754   23311337.2684   23311335.394
        42.9004         40.4004
  -1855114.96646  -1430193.91746  24381517.7454   24381520.8374   24381518.086
        39.0004         37.1004
  -5256444.81446  -4079445.25046  24320453.7084   24320455.2764   24320454.812
        38.5004         36.2004
 -15303311.99748 -11905014.53547  21036897.5864   21036903.3664   21036896.759
        49.5004         46.8004
 -14048810.24547 -10920179.86047  22140266.3944   22140269.2504   22140266.036
        46.0004         43.3004
  -6950468.87747  -5402136.65346  22827473.7224   22827479.3354   22827473.535
        43.7004         41.1004
 16 12 15  0 19 30.0000000  0 10G05G02G29G25G19G17G23G06G12G09
 -12581085.20047  -9773999.27747  22342232.7054   22342236.7034   22342232.866
        45.1004         42.5004
 -21322566.36348 -16594785.33848  20633783.3234   20633784.1454   20633783.781
        50.5004         48.2004
  -2886885.88746  -2233160.28446  24348299.0324   24348300.9354   24348297.340
        39.0004         36.9004
 -11371174.69047  -8848741.18946  22706131.3134   22706137.1544   22706131.673
        43.9004         41.2004
  -4468408.34447  -3465544.88946  23331064.8954   23331067.1754   23331065.603
        43.0004         40.6004
  -1750274.94846  -1348500.44146  24401467.6184   24401469.5964   24401466.951
        38.5004         36.0004
  -5220368.72946  -4051334.02746  24327319.5874   24327320.3664   24327320.387
        38.3004         36.2004
 -15248452.00248 -11862266.49647  21047337.0904   21047342.6314   21047336.520
        49.3004         46.8004
 -13984690.41547 -10870216.37247  22152468.0184   22152470.8624   22152467.298
        45.8004         43.2004
  -6974017.34347  -5420486.08946  22822992.8654   22822998.7374   22822992.666
        43.7004         41.2004
 16 12 15  0 20  0.0000000  0 10G05G02G29G25G19G17G23G06G12G09
 -12677857.33547  -9849406.13847  22323818.5964   22323822.3164   22323817.564
        45.3004         42.6004
 -21340620.88848 -16608853.80448  20630347.6334   20630348.5734   20630348.264
        50.7004         48.2004
  -2993277.55146  -2316062.87246  24328052.0044   24328055.1614   24328052.136
        39.6004         37.4004
 -11379335.93647  -8855100.60646  22704578.7254   22704584.3194   22704578.876
        43.9004         41.2004
  -4364517.23747  -3384590.81546  23350834.1034   23350837.5524   23350835.506
        43.2004         40.6004
  -1645281.83146  -1266687.62546  24421447.0354   24421448.6704   24421446.234
        38.3004         36.0004
  -5183784.68746  -4022826.97046  24334282.0194   24334282.2274   24334282.586
        38.7004         36.6004
 -15193279.34748 -11819274.82747  21057836.0584   21057841.4284   21057835.735
        49.3004         46.8004
 -13920060.05947 -10819855.07047  22164766.2954   22164769.5564   22164766.140
        45.8004         43.2004
  -6996984.90847  -5438382.87346  22818622.6114   22818628.0784   22818622.658
        43.9004         41.4004
 16 12 15  0 20 30.0000000  0 10G05G02G29G25G19G17G23G06G12G09
 -12774309.57747  -9924563.73147  22305464.4424   22305467.9554   22305463.957
        45.5004         42.8004
 -21358357.27748 -16622674.36648  20626972.3984   20626973.3444   20626973.000
        50.7004         48.2004
  -3099575.11746  -2398892.14846  24307824.3004   24307827.7404   24307824.068
        40.1004         37.9004
 -11386862.91547  -8860965.79346  22703145.7494   22703152.4314   22703146.444
        43.9004         41.2004
  -4260415.41947  -3303472.54846  23370643.3284   23370647.3374   23370643.921
        43.0004         40.4004
  -1540136.84546  -1184756.43845  24441454.0304   24441458.7004   24441455.263
        37.6004         35.3004
  -5146693.44546  -3993924.70145  24341337.8724   24341341.5514   24341338.251
        38.2004         35.9004
 -15137794.78248 -11776040.10747  21068394.3794   21068399.8364   21068393.819
        49.3004         46.6004
 -13854921.99847 -10769098.15547  22177161.5344   22177164.0964   22177161.386
        45.8004         43.0004
  -7019370.25347  -5455825.98546  22814362.4414   22814368.4674   22814362.386
        43.9004         41.2004
 16 12 15  0 21  0.0000000  0 10G05G02G29G25G19G17G23G06G12G09
 -12870439.87447  -9999470.44747  22287171.1734   22287174.6034   22287170.844
        45.5004         42.8004
 -21375775.34248 -16636246.87848  20623657.6804   20623658.8224   20623658.042
        50.7004         48.2004
  -3205776.95346  -2481646.82046  24287614.8094   24287617.6544   24287614.691
        40.3004         37.8004
 -11393755.54447  -8866336.68146  22701834.8554   22701840.4984   22701834.684
        43.9004         41.4004
  -4156104.58247  -3222191.41646  23390493.3354   23390496.6704   23390493.761
        43.0004         40.4004
  -1434841.79846  -1102708.36846  24461492.6614   24461497.1184   24461493.348
        37.8004         36.0004
  -5109096.31446  -3964628.25845  24348494.2824   24348494.3484   24348494.735
        38.0004         35.7004
 -15081999.37748 -11732563.16947  21079011.8664   21079017.5284   21079011.189
        49.3004         46.6004
 -13789278.80847 -10717947.63347  22189653.4774   22189656.0734   22189652.992
        45.6004         42.8004
  -7041172.26247  -5472814.55846  22810213.4584   22810218.8784   22810213.611
        43.9004         41.2004
 16 12 15  0 21 30.0000000  0 10G05G02G29G25G19G17G23G06G12G09
 -12966246.31647 -10074124.81347  22268939.1044   22268943.4724   22268938.915
        45.5004         42.8004
 -21392874.89748 -16649571.21448  20620404.0484   20620404.8064   20620404.550
        50.7004         48.2004
  -3311880.60346  -2564324.98546  24267423.9834   24267426.7874   24267424.202
        40.1004         37.8004
 -11400013.73347  -8871213.19646  22700643.9474   22700649.4384   22700644.075
        43.9004         41.2004
  -4051586.34247  -3140748.67646  23410382.1384   23410385.3304   23410383.184
        42.9004         40.0004
  -1329398.23546  -1020544.59946  24481557.9964   24481563.4044   24481557.637
        38.2004         36.0004
  -5070994.50146  -3934938.51546  24355744.1224   24355745.3784   24355746.087
        38.2004         36.0004
 -15025894.06248 -11688844.75347  21089688.4874   21089694.2274   21089687.932
        49.3004         46.5004
 -13723133.08847 -10666405.53347  22202240.2274   22202243.4374   22202240.168
        45.6004         42.8004
  -7062389.86847  -5489347.74846  22806176.1484   22806181.5784   22806176.000
        43.7004         41.1004
 16 12 15  0 22  0.0000000  0 10G05G02G29G25G19G17G23G06G12G09
 -13061726.93147 -10148525.28047  22250769.9554   22250773.5874   22250769.914
        45.5004         42.8004
 -21409655.69648 -16662647.15548  20617210.7014   20617211.3944   20617211.310
        50.7004         48.2004
  -3417884.19646  -2646925.16946  24247252.0344   24247254.7644   24247251.622
        39.9004         37.4004
 -11405637.34447  -8875595.23346  22699573.7564   22699579.3704   22699574.200
        44.1004         41.4004
  -3946862.72047  -3059145.88646  23430311.1154   23430313.4784   23430312.249
        42.7004         39.9004
  -1223807.91646   -938266.47945  24501650.8974   24501656.8634   24501649.815
        38.0004         35.9004
  -5032389.13746  -3904856.40746  24363090.6944   24363093.1494   24363090.198
        38.2004         36.0004
 -14969479.76648 -11644885.56747  21100423.9284   21100429.4834   21100423.422
        49.3004         46.6004
 -13656486.88747 -10614473.43947  22214923.0254   22214926.0844   22214922.991
        45.6004         42.8004
  -7083021.94047  -5505424.67646  22802249.9054   22802255.0374   22802249.864
        43.7004         41.1004
 16 12 15  0 22 30.0000000  0 10G05G02G29G25G19G17G23G06G12G09
 -13156879.73147 -10222670.31247  22232663.7204   22232666.8224   22232662.893
        45.6004         43.0004
 -21426117.24348 -16675474.33348  20614078.0814   20614079.0804   20614078.656
        50.7004         48.2004
  -3523785.71446  -2729445.81946  24227099.7884   24227102.8964   24227099.576
        39.6004         37.3004
 -11410626.42347  -8879482.83446  22698624.3104   22698630.5464   22698624.142
        44.1004         41.6004
  -3841935.22147  -2977384.22946  23450278.3054   23450281.0124   23450278.895
        42.5004         39.9004
  -1118072.14246   -855875.02545  24521768.3594   24521776.4514   24521767.696
        37.6004         35.5004
  -4993281.63446  -3874383.05145  24370533.5854   24370533.8594   24370531.775
        37.8004         35.9004
 -14912757.52548 -11600686.42847  21111217.6014   21111223.2884   21111216.605
        49.3004         46.6004
 -13589342.98447 -10562153.52247  22227699.5014   22227702.5934   22227699.266
        45.5004         43.0004
  -7103067.46747  -5521044.55846  22798435.6044   22798440.7364   22798435.388
        43.7004         41.1004
 16 12 15  0 23  0.0000000  0 10G05G02G29G25G19G17G23G06G12G09
 -13251702.85447 -10296558.45647  22214618.9654   22214622.4104   22214618.738
        45.6004         43.0004
 -21442259.43048 -16688052.66048  20611006.3804   20611007.1644   20611006.758
        50.7004         48.2004
  -3629583.04746  -2811885.26546  24206966.7664   24206970.2034   24206967.064
        39.4004         36.9004
 -11414980.76047  -8882875.82346  22697795.6614   22697802.4104   22697795.739
        44.2004         41.6004
  -3736805.49047  -2895464.98146  23470283.3584   23470287.3704   23470284.606
        42.5004         39.9004
  -1012192.86746   -773371.80546  24541917.6264   24541923.2694   24541917.784
        38.0004         36.0004
  -4953672.85746  -3843519.06246  24378070.1754   24378070.8054   24378071.623
        38.2004         36.0004
 -14855728.14548 -11556247.96147  21122070.1014   21122075.6694   21122069.413
        49.3004         46.6004
 -13521704.46947 -10509448.20347  22240570.7764   22240573.4914   22240570.576
        45.5004         42.8004
  -7122525.25247  -5536206.45046  22794732.9634   22794738.7784   22794732.518
        43.6004         40.9004
 16 12 15  0 23 30.0000000  0 10G05G02G29G25G19G17G23G06G12G09
 -13346194.03347 -10370187.93747  22196637.5364   22196641.4974   22196637.014
        45.6004         43.0004
 -21458081.54148 -16700381.57948  20607995.7184   20607996.6134   20607996.286
        50.7004         48.2004
  -3735274.49546  -2894242.20446  24186855.2584   24186858.2794   24186854.639
        39.0004         36.7004
 -11418700.46747  -8885774.31146  22697088.0054   22697094.1104   22697088.126
        44.1004         41.4004
  -3631474.58747  -2813388.99346  23490328.2624   23490330.5764   23490328.257
        42.7004         40.0004
   -906171.08546   -690757.51146  24562096.6284   24562098.9674   24562096.871
        39.6004         37.9004
  -4913564.09246  -3812265.47346  24385702.5254   24385704.0694   24385702.076
        38.3004         36.2004
 -14798392.67348 -11511570.98347  21132980.4334   21132986.6174   21132980.150
        49.3004         46.6004
 -13453572.87347 -10456358.65547  22253536.3784   22253538.8544   22253536.277
        45.6004         42.8004
  -7141394.37647  -5550909.65346  22791141.9994   22791147.2104   22791141.800
        43.7004         40.9004
 16 12 15  0 24  0.0000000  0 10G05G02G29G25G19G17G23G06G12G09
 -13440351.13747 -10443557.10147  22178720.4634   22178723.9714   22178719.842
        45.8004         43.0004
 -21473583.61848 -16712461.11848  20605045.8484   20605046.4654   20605046.422
        50.7004         48.2004
  -3840858.00346  -2976515.03946  24166762.8484   24166765.8984   24166763.343
        39.2004         36.9004
 -11421785.54847  -8888178.28146  22696500.8984   22696506.6934   22696501.387
        44.2004         41.4004
  -3525944.63747  -2731157.90046  23510409.7104   23510411.8724   23510410.573
        42.5004         39.7004
   -800008.97146   -608033.82646  24582298.8564   24582300.7924   24582298.490
        40.3004         37.8004
  -4872956.50646  -3780623.21546  24393429.6254   24393430.9914   24393429.357
        38.2004         36.0004
 -14740752.04748 -11466656.21747  21143949.1404   21143955.2604   21143948.520
        49.3004         46.5004
 -13384951.46847 -10402887.44847  22266594.3984   22266597.1364   22266593.975
        45.6004         42.8004
  -7159673.84547  -5565153.38346  22787663.6284   22787669.2444   22787663.541
        43.7004         41.2004
 16 12 15  0 24 30.0000000  0 10G05G02G29G25G19G17G23G06G12G09
 -13534172.66947 -10516664.79447  22160867.0134   22160870.4584   22160866.492
        45.8004         43.2004
 -21488765.35948 -16724291.04848  20602156.7214   20602157.5194   20602157.026
        50.7004         48.4004
  -3946331.55946  -3058702.21446  24146691.6534   24146694.2254   24146690.968
        39.2004         36.9004
 -11424236.14847  -8890087.84746  22696034.1554   22696040.6354   22696034.171
        44.1004         41.4004
  -3420217.46847  -2648773.14546  23530527.9394   23530530.7814   23530529.534
        42.0004         39.2004
   -693707.98946   -525201.95746  24602525.4064   24602529.5544   24602526.082
        39.9004         37.3004
  -4831851.59346  -3748593.41945  24401251.1524   24401252.5384   24401252.532
        38.2004         35.9004
 -14682807.29248 -11421504.48247  21154975.5094   21154981.7904   21154975.011
        49.3004         46.6004
 -13315842.83047 -10349036.57847  22279744.9234   22279748.1574   22279744.915
        45.5004         42.8004
  -7177362.73747  -5578936.93146  22784297.9404   22784302.7314   22784297.818
        43.7004         41.2004
 16 12 15  0 25  0.0000000  0 10G05G02G29G25G19G17G23G06G12G09
 -13627656.49947 -10589509.33347  22143077.1964   22143080.6494   22143077.263
        45.8004         43.0004
 -21503626.16848 -16735870.89448  20599328.4874   20599329.5994   20599328.928
        50.7004         48.2004
  -4051692.65646  -3140801.76546  24126642.2774   24126645.4804   24126642.622
        39.4004         37.1004
 -11426052.08547  -8891502.86046  22695688.8624   22695695.0564   22695689.336
        44.1004         41.2004
  -3314294.52346  -2566235.79846  23550684.0794   23550687.7784   23550684.827
        41.8004         39.0004
   -587269.65646   -442263.02746  24622780.0604   24622784.9034   24622779.626
        39.0004         36.4004
  -4790250.54746  -3716177.02945  24409168.8454   24409168.2794   24409168.881
        38.2004         35.9004
 -14624559.19848 -11376116.37147  21166059.9474   21166065.9594   21166059.087
        49.1004         46.5004
 -13246249.40047 -10294807.94847  22292988.6754   22292991.4544   22292988.538
        45.5004         42.6004
  -7194459.92547  -5592259.40346  22781044.7464   22781049.0464   22781043.945
        43.7004         41.1004
 16 12 15  0 25 30.0000000  0 10G05G02G29G25G19G17G23G06G12G09
 -13720800.56347 -10662089.11447  22125351.9424   22125356.4974   22125351.951
        46.0004         43.2004
 -21518165.59548 -16747200.32048  20596561.9744   20596562.7534   20596562.639
        50.8004         48.4004
  -4156939.60146  -3222812.38846  24106614.5704   24106616.7304   24106613.883
        39.4004         37.1004
 -11427233.63647  -8892423.55546  22695463.9714   22695469.8824   22695464.259
        44.1004         41.2004
  -3208177.55446  -2483547.28846  23570878.4054   23570880.9874   23570878.684
        41.8004         39.3004
   -480695.73346   -359218.41245  24643060.6084   24643061.5864   24643060.079
        37.1004         34.3004
  -4748154.59346  -3683374.97545  24417177.8674   24417180.5134   24417177.706
        38.0004         35.9004
 -14566008.77848 -11330492.68347  21177201.7354   21177207.8294   21177201.412
        49.1004         46.3004
 -13176173.70247 -10240203.52247  22306323.3554   22306326.8224   22306322.851
        45.5004         42.8004
  -7210964.58247  -5605120.16346  22777903.6744   22777908.5504   22777903.878
        43.9004         41.2004
 16 12 15  0 26  0.0000000  0 10G05G02G29G25G19G17G23G06G12G09
 -13813603.00547 -10734402.69847  22107692.5534   22107696.4194   22107692.151
        46.0004         43.3004
 -21532383.64048 -16758279.31848  20593856.3264   20593857.3764   20593856.996
        50.8004         48.4004
  -4262070.61946  -3304732.69246  24086608.7354   24086610.1624   24086608.613
        39.2004         36.9004
 -11427780.97947  -8892850.06446  22695359.6984   22695365.9714   22695360.424
        44.1004         41.4004
  -3101868.58247  -2400709.16746  23591108.4994   23591112.2714   23591109.750
        42.2004         39.7004
   -373987.61846   -276069.26445  24663365.5824   24663369.9154   24663366.563
        36.3004         34.1004
  -4705565.09346  -3650188.38546  24425282.8334   24425284.2074   24425283.492
        38.2004         36.0004
 -14507157.09448 -11284634.24247  21188400.7634   21188406.9194   21188400.286
        49.1004         46.5004
 -13105618.81347 -10185225.69547  22319749.1474   22319752.4314   22319749.072
        45.5004         42.6004
  -7226875.89547  -5617518.58046  22774875.5994   22774880.8674   22774875.298
        43.9004         41.2004
 16 12 15  0 26 30.0000000  0 10G05G02G29G25G19G17G23G06G12G09
 -13906061.81847 -10806448.52247  22090098.8544   22090102.1844   22090098.841
        46.0004         43.3004
 -21546280.06648 -16769107.70148  20591211.8684   20591213.0774   20591212.365
        50.8004         48.4004
  -4367083.30746  -3386560.79646  24066625.1794   24066627.8844   24066625.336
        39.0004         36.9004
 -11427694.16147  -8892782.41146  22695376.3514   22695382.5124   22695376.092
        44.1004         41.4004
  -2995368.79247  -2317722.35546  23611374.0634   23611377.4304   23611375.193
        42.2004         39.5004
   -267146.96246   -192816.87945  24683697.3694   24683702.1944   24683697.042
        36.1004         34.3004
  -4662483.20846  -3616618.09546  24433481.5534   24433482.0264   24433481.703
        38.3004         36.0004
 -14448005.00348 -11238541.72247  21199657.0744   21199663.0394   21199656.449
        49.1004         46.3004
 -13034586.84047 -10129876.12347  22333266.1444   22333269.4304   22333266.564
        45.5004         42.6004
  -7242192.87347  -5629453.87946  22771960.6344   22771965.8884   22771960.502
        43.9004         41.2004
 16 12 15  0 27  0.0000000  0 10G05G02G29G25G19G17G23G06G12G09
 -13998175.23147 -10878225.20547  22072569.9264   22072573.1684   22072569.629
        46.0004         43.3004
 -21559854.63248 -16779685.29248  20588628.6744   20588629.8664   20588629.156
        50.8004         48.4004
  -4471975.89046  -3468295.29846  24046664.6854   24046667.4464   24046664.957
        39.0004         36.9004
 -11426973.46547  -8892220.83246  22695513.5314   22695519.6024   22695513.655
        44.1004         41.4004
  -2888679.99047  -2234588.27546  23631676.3274   23631680.0614   23631675.914
        42.0004         39.2004
   -160175.32246   -109462.43145  24704052.5884   24704060.7674   24704051.481
        36.1004         34.5004
  -4618910.69746  -3582665.49346  24441772.8384   24441772.6894   24441772.942
        38.2004         36.0004
 -14388553.53648 -11192215.92147  21210970.1874   21210976.5854   21210969.488
        48.9004         46.3004
 -12963080.77847 -10074157.13547  22346873.3424   22346876.2794   22346873.961
        45.5004         42.6004
  -7256914.74747  -5640925.46046  22769159.2774   22769164.5724   22769158.950
        43.9004         41.2004
 16 12 15  0 27 30.0000000  0 10G05G02G29G25G19G17G23G06G12G09
 -14089941.12147 -10949731.08247  22055107.4714   22055111.0204   22055106.977
        46.2004         43.3004
 -21573106.58748 -16790011.49848  20586107.0684   20586108.1094   20586107.966
        50.8004         48.4004
  -4576745.79246  -3549934.20746  24026728.1454   24026729.7214   24026728.141
        39.2004         37.1004
 -11425619.04047  -8891165.44746  22695771.7464   22695777.4244   22695771.450
        44.1004         41.4004
  -2781803.67846  -2151308.06046  23652014.2234   23652018.0734   23652014.711
        41.8004         39.2004
    -53074.46046    -26007.27045  24724434.6184   24724438.3334   24724434.734
        37.5004         35.9004
  -4574848.89746  -3548331.62646  24450158.0484   24450158.3664   24450157.795
        38.2004         36.0004
 -14328803.57048 -11145657.51647  21222340.4084   21222346.3474   21222339.919
        48.9004         46.3004
 -12891103.39347 -10018070.87447  22360570.4034   22360573.6754   22360569.777
        45.3004         42.5004
  -7271040.63547  -5651932.64646  22766471.5454   22766476.0394   22766471.841
        44.1004         41.4004
 16 12 15  0 28  0.0000000  0 10G05G02G29G25G19G17G23G06G12G09
 -14181357.63947 -11020964.73247  22037711.8044   22037714.8954   22037711.168
        46.2004         43.5004
 -21586035.81148 -16800086.22048  20583646.6814   20583647.6564   20583647.119
        50.8004         48.4004
  -4681391.59246  -3631476.38646  24006814.9104   24006817.3404   24006814.885
        39.6004         37.3004
 -11423631.11947  -8889616.42146  22696149.5054   22696155.8084   22696149.724
        44.1004         41.4004
  -2674741.65447  -2067883.16146  23672389.0464   23672391.8494   23672390.108
        42.2004         39.7004
     54153.80546     57547.18546  24744839.9914   24744843.9714   24744839.700
        38.5004         36.6004
  -4530298.55946  -3513617.09346  24458634.7854   24458636.9584   24458636.375
        38.3004         36.2004
 -14268756.09448 -11098867.29147  21233767.1054   21233773.2994   21233766.562
        48.9004         46.1004
 -12818657.29147  -9961619.37847  22374356.7084   22374359.7394   22374356.388
        45.1004         42.5004
  -7284569.72447  -5662474.77146  22763896.9054   22763901.8574   22763896.982
        43.9004         41.2004
 16 12 15  0 28 30.0000000  0  9G05G02G29G25G19G23G06G12G09
 -14272422.97347 -11091924.72547  22020382.4104   22020385.5604   22020382.263
        46.3004         43.7004
 -21598642.23648 -16809909.40548  20581247.5644   20581248.7304   20581248.096
        50.8004         48.4004
  -4785910.74546  -3712919.86546  23986925.5634   23986927.8804   23986925.973
        39.7004         37.4004
 -11421009.97647  -8887573.97746  22696648.5074   22696654.7824   22696648.525
        44.2004         41.6004
  -2567495.80547  -1984314.99546  23692797.3714   23692799.5364   23692798.594
        42.0004         39.3004
  -4485261.68746  -3478523.43746  24467206.0034   24467206.1714   24467206.288
        38.5004         36.2004
 -14208412.07948 -11051845.99347  21245250.0534   21245256.1764   21245249.392
        48.9004         46.1004
 -12745744.97347  -9904804.59747  22388231.0484   22388233.9484   22388230.943
        45.1004         42.3004
  -7297501.28447  -5672551.30246  22761435.3934   22761440.9484   22761435.056
        43.7004         41.1004
 16 12 15  0 29  0.0000000  0  9G05G02G29G25G19G23G06G12G09
 -14363135.06647 -11162609.46547  22003120.1564   22003124.1204   22003120.053
        46.3004         43.7004
 -21610925.26048 -16819480.59348  20578910.3374   20578911.3424   20578910.934
        50.8004         48.4004
  -4890301.06046  -3794262.95546  23967060.3974   23967063.2534   23967060.437
        39.7004         37.6004
 -11417755.83547  -8885038.29746  22697267.7174   22697273.3354   22697268.161
        44.2004         41.6004
  -2460067.79946  -1900604.89346  23713238.3834   23713242.8104   23713238.541
        41.6004         38.8004
  -4439739.29946  -3443051.44645  24475868.0054   24475869.0654   24475868.145
        38.0004         35.9004
 -14147772.39348 -11004594.30547  21256789.7094   21256795.5044   21256788.925
        48.9004         46.3004
 -12672369.22847  -9847628.71147  22402194.4394   22402196.9264   22402194.260
        45.1004         42.5004
  -7309834.46647  -5682161.56246  22759088.5784   22759093.8544   22759088.623
        43.7004         40.9004
 16 12 15  0 29 30.0000000  0  9G05G02G29G25G19G23G06G12G09
 -14453492.02247 -11233017.48447  21985926.1084   21985929.4124   21985925.386
        46.5004         43.9004
 -21622884.35548 -16828799.36448  20576634.6124   20576635.7584   20576635.364
        50.8004         48.5004
  -4994560.87346  -3875504.34846  23947220.2974   23947223.1084   23947220.296
        40.1004         37.8004
 -11413869.20047  -8882009.75546  22698006.8424   22698013.2694   22698007.116
        44.1004         41.4004
  -2352459.08646  -1816753.98646  23733715.8034   23733719.3694   23733716.863
        41.5004         39.0004
  -4393733.19146  -3407202.52446  24484623.4584   24484624.4204   24484623.718
        38.3004         36.4004
 -14086838.15048 -10957113.08947  21268385.0994   21268390.9854   21268384.490
        48.9004         46.3004
 -12598532.86647  -9790093.90147  22416244.4644   22416247.7524   22416244.144
        45.1004         42.5004
  -7321568.67947  -5691305.10946  22756855.4954   22756861.3444   22756855.864
        43.7004         40.9004
 16 12 15  0 30  0.0000000  0  9G05G02G29G25G19G23G06G12G09
 -14543491.71147 -11303147.10447  21968799.6974   21968803.0854   21968799.309
        46.5004         43.9004
 -21634519.67448 -16837865.84548  20574420.5254   20574421.5164   20574421.070
        50.8004         48.5004
  -5098687.71946  -3956642.13446  23927405.2144   23927408.4374   23927404.295
        40.1004         37.8004
 -11409350.20747  -8878488.46946  22698867.1614   22698872.9504   22698867.650
        44.1004         41.6004
  -2244671.51346  -1732763.72546  23754227.5194   23754230.0334   23754228.212
        41.3004         38.8004
  -4347244.59746  -3370977.65646  24493468.9704   24493472.4794   24493469.300
        38.5004         36.4004
 -14025610.14648 -10909402.96847  21280036.0644   21280042.2444   21280035.647
        48.8004         46.3004
 -12524238.36147  -9732202.09547  22430382.7414   22430385.5544   22430382.485
        45.1004         42.5004
  -7332703.13747  -5699981.28846  22754736.9094   22754742.6174   22754737.086
        43.7004         41.1004
 16 12 15  0 30 30.0000000  0  9G05G02G29G25G19G23G06G12G09
 -14633132.78347 -11372997.27847  21951741.5334   21951745.3514   21951741.300
        46.5004         43.9004
 -21645830.80248 -16846679.71848  20572268.0774   20572269.0824   20572268.401
        50.8004         48.5004
  -5202679.53946  -4037674.70646  23907615.5724   23907619.9574   23907614.728
        40.1004         37.8004
 -11404199.32347  -8874474.80246  22699847.8494   22699853.7794   22699847.489
        44.1004         41.4004
  -2136706.98946  -1648635.55146  23774772.8494   23774775.4294   23774773.962
        41.3004         38.6004
  -4300274.98446  -3334377.96445  24502407.8294   24502408.0204   24502407.395
        38.2004         35.7004
 -13964089.42248 -10861464.75347  21291743.3634   21291749.4154   21291742.902
        48.8004         46.1004
 -12449488.98847  -9673955.84647  22444607.1794   22444609.6584   22444606.474
        45.1004         42.5004
  -7343237.16347  -5708189.61546  22752732.3334   22752737.8204   22752732.136
        43.7004         41.1004
 16 12 15  0 31  0.0000000  0  9G05G02G29G25G19G23G06G12G09
 -14722412.92947 -11442566.23447  21934751.9874   21934755.4594   21934751.267
        46.5004         43.9004
 -21656817.52348 -16855240.80848  20570177.5594   20570178.4094   20570177.764
        50.8004         48.5004
  -5306534.57446  -4118600.70646  23887853.0074   23887856.7344   23887853.049
        40.4004         38.1004
 -11398416.99047  -8869969.08946  22700947.4094   22700953.8734   22700947.270
        44.1004         41.6004
  -2028567.07246  -1564370.70546  23795350.3874   23795354.2604   23795351.929
        41.1004         38.5004
  -4252825.81346  -3297404.59245  24511436.3604   24511436.9094   24511437.347
        37.8004         35.5004
 -13902276.94948 -10813299.21247  21303506.1544   21303511.7524   21303505.314
        48.8004         46.1004
 -12374287.28047  -9615357.13247  22458917.5354   22458920.2464   22458917.244
        45.1004         42.5004
  -7353170.16247  -5715929.60046  22750842.0604   22750848.3324   22750841.981
        43.7004         41.1004
 16 12 15  0 31 30.0000000  0  9G05G02G29G25G19G23G06G12G09
 -14811330.67447 -11511852.77847  21917831.7484   21917834.7694   21917831.386
        46.5004         43.9004
 -21667479.59148 -16863548.91848  20568148.5774   20568149.5224   20568149.230
        51.0004         48.5004
  -5410250.55046  -4199418.34246  23868116.6894   23868120.6864   23868116.461
        40.4004         37.9004
 -11392003.57847  -8864971.63546  22702168.1914   22702174.2064   22702168.360
        44.1004         41.4004
  -1920253.02946  -1479970.17846  23815962.8564   23815965.0304   23815963.337
        40.8004         38.5004
  -4204898.73046  -3260058.82346  24520557.3104   24520559.4324   24520556.937
        38.0004         36.0004
 -13840173.68648 -10764907.07947  21315323.8924   21315329.5704   21315323.320
        48.8004         45.9004
 -12298635.62547  -9556407.80547  22473312.8064   22473316.5044   22473312.880
        44.9004         42.3004
  -7362501.48447  -5723200.75446  22749066.1834   22749073.0164   22749065.488
        43.7004         41.1004
 16 12 15  0 32  0.0000000  0  9G05G02G29G25G19G23G06G12G09
 -14899883.81247 -11580855.21847  21900980.5004   21900983.8494   21900980.340
        46.5004         43.9004
 -21677816.40148 -16871603.57848  20566181.5244   20566182.3504   20566182.172
        51.0004         48.5004
  -5513825.06446  -4280125.76046  23848407.1344   23848410.5614   23848407.132
        40.4004         37.9004
 -11384959.50047  -8859482.75946  22703508.7914   22703514.7744   22703508.898
        44.2004         41.6004
  -1811766.66846  -1395435.37946  23836607.0524   23836609.1584   23836608.196
        40.9004         38.5004
  -4156494.86946  -3222341.53346  24529766.9094   24529771.0604   24529768.190
        38.0004         36.0004
 -13777780.46648 -10716289.00047  21327196.9114   21327202.8104   21327196.126
        48.6004         45.9004
 -12222537.07547  -9497110.24847  22487794.2864   22487797.3534   22487793.995
        44.8004         42.1004
  -7371230.43747  -5730002.51946  22747405.1674   22747410.7644   22747405.158
        43.9004         41.2004
 16 12 15  0 32 30.0000000  0  9G05G02G29G25G19G23G06G12G09
 -14988070.65447 -11649572.23447  21884198.8514   21884202.3514   21884198.812
        46.7004         43.9004
 -21687827.86648 -16879404.72348  20564276.3624   20564277.3404   20564276.932
        51.0004         48.5004
  -5617255.86846  -4360721.19846  23828725.6004   23828728.2184   23828725.531
        40.4004         37.9004
 -11377285.34547  -8853502.91046  22704968.9684   22704975.3264   22704968.951
        44.1004         41.4004
  -1703110.08646  -1310767.95146  23857284.2584   23857286.6994   23857284.831
        41.1004         38.6004
  -4107616.43746  -3184254.46945  24539069.8944   24539070.1894   24539070.331
        38.0004         35.7004
 -13715098.47548 -10667445.90647  21339124.8264   21339130.5184   21339123.736
        48.6004         45.8004
 -12145995.11547  -9437467.17847  22502359.9244   22502362.7504   22502360.076
        44.8004         42.1004
  -7379356.64647  -5736334.60846  22745858.9854   22745864.9344   22745859.099
        43.9004         41.2004
 16 12 15  0 33  0.0000000  0  9G05G02G29G25G19G23G06G12G09
 -15075889.11347 -11718002.20047  21867487.9104   21867491.0214   21867487.104
        46.7004         43.9004
 -21697513.62148 -16886952.06048  20562433.0684   20562434.1184   20562433.532
        51.0004         48.5004
  -5720541.17846  -4441203.26246  23809071.5894   23809074.0484   23809070.969
        40.4004         37.9004
 -11368981.49047  -8847032.37146  22706549.1714   22706555.2124   22706549.506
        44.1004         41.4004
  -1594284.49846  -1225968.85246  23877992.8964   23877994.8694   23877994.335
        41.1004         38.5004
  -4058264.57746  -3145798.47745  24548460.2774   24548461.9084   24548461.816
        37.8004         35.9004
 -13652128.39848 -10618378.32347  21351107.5614   21351113.4254   21351107.229
        48.4004         45.8004
 -12069011.64847  -9377480.08746  22517009.7214   22517012.0524   22517009.367
        44.6004         41.8004
  -7386879.32347  -5742196.41746  22744426.9394   22744432.7024   22744426.563
        43.7004         41.1004
 16 12 15  0 33 30.0000000  0  9G05G02G29G25G19G23G06G12G09
 -15163337.81447 -11786144.04347  21850846.8024   21850850.0694   21850846.758
        46.7004         43.9004
 -21706873.04248 -16894245.11548  20560652.0644   20560653.1254   20560652.553
        51.0004         48.5004
  -5823678.68646  -4521570.15846  23789444.4724   23789447.7574   23789443.653
        40.4004         37.9004
 -11360048.52847  -8840071.63346  22708248.8284   22708255.4824   22708249.283
        44.1004         41.4004
  -1485292.05046  -1141039.70546  23898732.8754   23898736.3664   23898734.027
        40.9004         38.5004
  -4008440.55546  -3106974.57946  24557941.8934   24557943.8114   24557942.649
        38.0004         36.0004
 -13588871.37648 -10569087.15447  21363144.9934   21363151.0254   21363144.042
        48.4004         45.8004
 -11991589.81047  -9317151.39546  22531742.3364   22531745.3294   22531742.287
        44.6004         41.9004
  -7393798.05347  -5747587.63746  22743111.2694   22743116.8794   22743110.869
        43.9004         41.6004
 16 12 15  0 34  0.0000000  0  9G05G02G29G25G19G23G06G12G09
 -15250414.69547 -11853996.15647  21834276.4724   21834280.1164   21834276.479
        46.7004         44.0004
 -21715905.89548 -16901283.70448  20558933.1864   20558934.3414   20558933.828
        51.0004         48.5004
  -5926666.65246  -4601820.52846  23769846.3054   23769849.7034   23769847.164
        40.3004         37.9004
 -11350487.05247  -8832621.14546  22710068.9644   22710074.2114   22710068.413
        44.1004         41.2004
  -1376134.38546  -1055981.82746  23919505.5444   23919508.4294   23919505.011
        40.9004         38.5004
  -3958146.12946  -3067784.11645  24567512.8054   24567514.4264   24567513.015
        38.2004         35.9004
 -13525328.34148 -10519573.12047  21375236.9144   21375242.4484   21375236.350
        48.4004         45.8004
 -11913732.40047  -9256483.30246  22546558.3024   22546560.7024   22546557.406
        44.6004         41.9004
  -7400112.37047  -5752507.86446  22741909.1234   22741915.2014   22741909.485
        44.1004         41.6004
 16 12 15  0 34 30.0000000  0  9G05G02G29G25G19G23G06G12G09
 -15337118.00747 -11921557.17347  21817777.5764   21817781.1344   21817776.994
        46.7004         44.0004
 -21724612.41248 -16908068.00348  20557276.6064   20557277.6864   20557277.076
        51.0004         48.7004
  -6029502.37846  -4681952.27146  23750277.5984   23750280.5674   23750277.798
        40.3004         37.8004
 -11340297.62047  -8824681.34346  22712007.5824   22712013.0804   22712007.445
        43.9004         41.2004
  -1266813.27946   -970796.60646  23940307.8004   23940311.4344   23940308.887
        40.8004         38.3004
  -3907382.76046  -3028228.26145  24577172.6244   24577174.0404   24577172.578
        37.8004         35.7004
 -13461500.21848 -10469836.93947  21387382.8384   21387388.7034   21387382.053
        48.2004         45.6004
 -11835442.64947  -9195478.31546  22561455.8544   22561459.4184   22561455.877
        44.6004         41.9004
  -7405821.76247  -5756956.73146  22740822.8904   22740828.3734   22740822.960
        44.2004         41.6004
 16 12 15  0 35  0.0000000  0  9G05G02G29G25G19G23G06G12G09
 -15423445.89247 -11988825.65647  21801349.8664   21801353.4724   21801349.762
        46.7004         44.0004
 -21732992.27948 -16914597.77948  20555681.8904   20555683.0484   20555682.438
        51.0004         48.5004
  -6132183.64146  -4761963.65146  23730737.8294   23730740.6494   23730737.958
        40.3004         37.8004
 -11329480.84347  -8816252.69846  22714066.5454   22714071.8834   22714065.794
        43.9004         41.2004
  -1157330.36646   -885485.30246  23961142.6894   23961144.9094   23961143.520
        40.8004         38.5004
  -3856152.54246  -2988308.62345  24586922.5804   24586921.0724   24586922.883
        37.8004         35.9004
 -13397387.97848 -10419879.36147  21399582.9584   21399588.9474   21399582.537
        48.2004         45.6004
 -11756723.13147  -9134138.43946  22576435.4594   22576439.0074   22576435.153
        44.6004         41.9004
  -7410925.80347  -5760933.88846  22739851.9284   22739857.2904   22739851.712
        44.2004         41.4004
 16 12 15  0 35 30.0000000  0  9G05G02G29G25G19G23G06G12G09
 -15509396.37247 -12055800.04847  21784994.0814   21784997.8744   21784993.883
        46.9004         44.2004
 -21741045.02748 -16920872.65048  20554149.5354   20554150.5444   20554149.989
        51.0004         48.7004
  -6234708.89946  -4841853.47046  23711228.4854   23711231.2234   23711227.716
        40.3004         37.9004
 -11318037.34747  -8807335.68946  22716243.6814   22716249.5684   22716243.752
        43.9004         41.2004
  -1047687.13846   -800049.06846  23982006.3154   23982009.1154   23982006.327
        40.8004         38.3004
  -3804456.83046  -2948026.24445  24596757.8894   24596759.7744   24596758.966
        37.8004         35.7004
 -13332992.53948 -10369701.11747  21411837.1884   21411843.1904   21411836.328
        48.2004         45.6004
 -11677576.57647  -9072465.81446  22591497.0724   22591500.0004   22591496.713
        44.6004         41.9004
  -7415423.97147  -5764438.94346  22738995.2334   22739001.6984   22738995.269
        44.1004         41.4004
 16 12 15  0 36  0.0000000  0  9G05G02G29G25G19G23G06G12G09
 -15594967.97747 -12122479.21847  21768710.5394   21768713.8044   21768709.855
        47.0004         44.4004
 -21748770.21348 -16926892.27748  20552679.3604   20552680.4204   20552679.823
        51.0004         48.7004
  -6337075.24046  -4921619.45146  23691748.4934   23691751.6354   23691748.217
        40.4004         38.1004
 -11305967.80847  -8797930.87546  22718540.2734   22718546.6674   22718540.393
        43.9004         41.2004
   -937885.64446   -714489.50646  24002899.9944   24002904.1554   24002900.688
        40.6004         37.9004
  -3752297.12446  -2907382.35045  24606684.4434   24606687.2684   24606684.407
        37.6004         35.7004
 -13268314.93748 -10319303.00947  21424144.8274   21424150.8524   21424144.585
        48.2004         45.4004
 -11598006.22047  -9010462.95046  22606639.3124   22606641.9844   22606638.895
        44.6004         41.9004
  -7419315.99447  -5767471.68246  22738255.0374   22738260.8804   22738254.645
        44.1004         41.4004
 16 12 15  0 36 30.0000000  0  9G05G02G29G25G19G23G06G12G09
 -15680158.70847 -12188861.60847  21752499.2164   21752502.5184   21752498.679
        47.0004         44.4004
 -21756167.57648 -16932656.46448  20551271.7094   20551272.7844   20551272.156
        51.0004         48.7004
  -6439280.58946  -5001259.98646  23672299.3334   23672302.1674   23672299.307
        40.6004         38.3004
 -11293272.92547  -8788038.76846  22720955.8504   22720962.5084   22720956.223
        43.9004         41.1004
   -827927.43046   -628807.79846  24023824.8844   24023828.1134   24023826.086
        40.3004         37.8004
  -3699675.24946  -2866378.28645  24616698.1314   24616698.6414   24616698.075
        37.5004         35.3004
 -13203356.06748 -10268685.72347  21436506.1864   21436512.1194   21436505.239
        48.2004         45.4004
 -11518014.25747  -8948131.57446  22621861.0614   22621863.9554   22621860.221
        44.6004         41.8004
  -7422601.45447  -5770031.77646  22737629.8184   22737635.1764   22737629.471
        44.1004         41.4004
 16 12 15  0 37  0.0000000  0  9G05G02G29G25G19G23G06G12G09
 -15764966.81947 -12254945.85147  21736360.7524   21736364.4534   21736360.553
        47.0004         44.4004
 -21763236.87148 -16938165.01048  20549926.4004   20549927.4044   20549927.001
        51.0004         48.5004
  -6541322.85346  -5080773.42846  23652881.8234   23652884.7374   23652881.545
        40.8004         38.5004
 -11279953.39347  -8777659.91946  22723491.1894   22723496.6954   22723490.977
        43.9004         41.2004
   -717813.79746   -543005.00746  24044780.5534   24044782.9314   24044781.128
        40.1004         37.6004
  -3646592.69746  -2825015.27045  24626798.3304   24626799.5714   24626797.946
        37.1004         35.0004
 -13138116.88848 -10217850.02147  21448920.7674   21448926.6214   21448920.340
        48.1004         45.2004
 -11437603.89647  -8885474.15846  22637162.7834   22637165.4164   22637162.696
        44.4004         41.6004
  -7425279.97047  -5772118.92046  22737120.7564   22737125.6984   22737120.080
        44.1004         41.4004
 16 12 15  0 37 30.0000000  0  9G05G02G29G25G19G23G06G12G09
 -15849390.65847 -12320730.66747  21720294.8394   21720299.0494   21720294.636
        47.0004         44.4004
 -21769977.78848 -16943417.67448  20548643.7984   20548644.7374   20548644.241
        51.0004         48.7004
  -6643200.13746  -5160158.31546  23633494.5724   23633497.6274   23633494.479
        41.1004         38.6004
 -11266009.96447  -8766794.92046  22726144.3704   22726150.5074   22726143.994
        43.9004         41.2004
   -607546.76446   -457082.69246  24065762.9934   24065766.0524   24065762.949
        40.3004         37.8004
  -3593051.22946  -2783294.66745  24636988.4724   24636990.1984   24636988.274
        37.5004         35.7004
 -13072598.36348 -10166796.64247  21461388.3514   21461394.5604   21461387.655
        48.1004         45.2004
 -11356778.23047  -8822493.13946  22652543.2544   22652546.0024   22652542.967
        44.4004         41.8004
  -7427351.23847  -5773732.89446  22736726.1434   22736731.8204   22736725.860
        44.1004         41.2004
 16 12 15  0 38  0.0000000  0  9G05G02G29G25G19G23G06G12G09
 -15933428.47747 -12386214.68447  21704303.1834   21704306.9294   21704303.146
        47.0004         44.4004
 -21776390.09548 -16948414.27848  20547423.7004   20547424.5484   20547424.115
        51.0004         48.7004
  -6744910.18546  -5239412.89246  23614140.1264   23614143.1934   23614139.312
        41.3004         38.8004
 -11251443.52047  -8755444.45246  22728915.8814   22728922.2514   22728915.877
        43.9004         41.1004
   -497128.38446   -371042.42646  24086775.1154   24086777.7214   24086776.382
        40.4004         38.1004
  -3539052.67446  -2741217.88245  24647263.5424   24647263.8324   24647264.198
        37.8004         35.7004
 -13006801.51647 -10115526.38647  21473909.1184   21473915.4484   21473908.543
        47.9004         45.2004
 -11275540.21447  -8759190.79346  22668001.9234   22668005.4444   22668001.474
        44.2004         41.6004
  -7428815.02347  -5774873.50546  22736446.8324   22736453.2214   22736446.994
        43.7004         40.9004
 16 12 15  0 38 30.0000000  0  9G05G02G29G25G19G23G06G12G09
 -16017078.36147 -12451396.41347  21688385.2504   21688388.6794   21688385.018
        47.0004         44.4004
 -21782473.55348 -16953154.63948  20546266.0164   20546266.8314   20546266.545
        51.0004         48.7004
  -6846450.04446  -5318534.84746  23594817.8444   23594820.6974   23594817.527
        41.5004         39.0004
 -11236254.69447  -8743609.02046  22731806.5264   22731812.1974   22731806.547
        43.9004         41.2004
   -386560.01846   -284885.30646  24107815.1494   24107817.6574   24107815.752
        40.1004         37.6004
  -3484598.45346  -2698786.03045  24657626.7524   24657626.8354   24657625.742
        37.6004         35.7004
 -12940727.19647 -10064039.92947  21486482.6004   21486488.9034   21486482.079
        47.9004         45.2004
 -11193893.08747  -8695569.66346  22683538.7704   22683542.3184   22683539.039
        44.2004         41.4004
  -7429670.94447  -5775540.46446  22736284.3224   22736290.0244   22736284.329
        43.6004         40.7004
 16 12 15  0 39  0.0000000  0  9G05G02G29G25G19G23G06G12G09
 -16100338.72447 -12516274.61247  21672541.3264   21672545.1584   21672541.439
        47.2004         44.4004
 -21788227.64448 -16957638.34648  20545170.8514   20545171.9474   20545171.327
        51.0004         48.5004
  -6947817.97446  -5397522.84346  23575527.9284   23575530.7264   23575527.952
        41.5004         38.8004
 -11220444.40947  -8731289.32646  22734815.0504   22734820.9604   22734815.454
        43.9004         41.1004
   -275843.87946   -198613.03346  24128883.4104   24128887.8074   24128884.539
        40.1004         37.6004
  -3429690.47146  -2656000.59645  24668076.2534   24668075.2874   24668075.240
        37.5004         35.3004
 -12874376.43447 -10012338.05847  21499108.5704   21499115.2914   21499108.475
        47.9004         45.2004
 -11111839.28647  -8631631.65246  22699153.2684   22699156.4844   22699152.860
        44.1004         41.4004
  -7429918.81847  -5775733.61946  22736237.3384   22736242.5984   22736237.161
        43.4004         40.9004
 16 12 15  0 39 30.0000000  0  9G05G02G29G25G19G23G06G12G09
 -16183207.51647 -12580847.69447  21656771.9054   21656775.8314   21656771.518
        47.0004         44.4004
 -21793652.26348 -16961865.32248  20544138.5384   20544139.6024   20544138.956
        51.0004         48.5004
  -7049011.64246  -5476375.05546  23556271.7814   23556274.2634   23556271.530
        41.3004         38.6004
 -11204013.44547  -8718485.98746  22737941.6664   22737947.5954   22737941.758
        43.9004         41.1004
   -164981.33746   -112226.68146  24149980.1164   24149984.2314   24149980.520
        40.1004         37.8004
  -3374330.31346  -2612862.81145  24678609.6654   24678610.3714   24678608.678
        37.1004         35.0004
 -12807750.12347  -9960421.46847  21511787.4964   21511793.8594   21511786.547
        47.9004         45.2004
 -11029382.00447  -8567379.23746  22714844.4484   22714847.7344   22714844.270
        44.1004         41.4004
  -7429558.38247  -5775452.74646  22736306.2824   22736311.4634   22736305.700
        43.6004         41.1004
 16 12 15  0 40  0.0000000  0  9G05G02G29G25G19G23G06G12G09
 -16265683.28647 -12645114.52647  21641077.3934   21641080.9384   21641076.784
        47.0004         44.4004
 -21798747.17348 -16965835.39148  20543169.0984   20543170.0454   20543169.676
        51.0004         48.7004
  -7150029.79846  -5555090.49746  23537048.5724   23537050.5174   23537047.898
        41.1004         38.6004
 -11186962.71647  -8705199.71846  22741186.3444   22741192.2804   22741186.520
        43.9004         41.2004
    -53973.84146    -25727.38546  24171104.1984   24171108.3284   24171105.342
        40.4004         37.9004
  -3318519.95246  -2569374.23745  24689230.0104   24689230.6534   24689229.900
        37.1004         35.0004
 -12740849.26947  -9908290.95747  21524518.3954   21524524.7034   21524517.993
        47.9004         45.2004
 -10946523.75747  -8502814.39146  22730611.7684   22730615.4844   22730611.607
        44.2004         41.4004
  -7428589.49347  -5774697.77446  22736490.4404   22736496.4374   22736490.067
        43.9004         41.2004
 16 12 15  0 40 30.0000000  0  9G05G02G29G25G19G23G06G12G09
 -16347764.43447 -12709073.86447  21625457.5344   21625461.2844   21625457.274
        47.0004         44.4004
 -21803512.10048 -16969548.31848  20542262.3974   20542263.3634   20542262.891
        51.0004         48.7004
  -7250868.70946  -5633666.27046  23517859.6954   23517862.2874   23517859.240
        40.9004         38.5004
 -11169293.14047  -8691431.23146  22744548.7264   22744554.7644   22744548.978
        43.9004         41.2004
     57176.59646     60883.29946  24192255.4784   24192258.0254   24192256.372
        40.6004         38.1004
  -3262260.60846  -2525535.79045  24699936.7084   24699935.0124   24699936.891
        37.0004         35.0004
 -12673674.82947  -9855947.26247  21537301.4214   21537307.4894   21537300.747
        47.9004         45.1004
 -10863267.90647  -8437939.71246  22746455.0404   22746458.3344   22746454.941
        44.2004         41.6004
  -7427011.96947  -5773468.53646  22736790.6904   22736796.3034   22736790.747
        44.1004         41.4004
 16 12 15  0 41  0.0000000  0  9G05G02G29G25G19G23G06G12G09
 -16429449.20747 -12772724.33147  21609913.7124   21609917.2244   21609913.393
        47.2004         44.5004
 -21807946.74848 -16973003.89748  20541418.6214   20541419.5984   20541419.307
        51.0004         48.7004
  -7351526.85546  -5712101.19846  23498705.4614   23498707.0924   23498704.858
        40.9004         38.5004
 -11151005.66847  -8677181.26546  22748028.9064   22748034.8194   22748028.360
        43.9004         41.2004
    168468.13246    147603.92746  24213433.1984   24213436.6664   24213433.599
        40.4004         37.9004
  -3205554.58546  -2481349.30345  24710725.8284   24710727.7534   24710725.949
        36.8004         34.8004
 -12606227.79047  -9803391.15147  21550136.2074   21550142.2034   21550135.704
        47.9004         45.2004
 -10779617.54547  -8372757.62746  22762373.4994   22762376.6464   22762372.957
        44.2004         41.4004
  -7424825.68747  -5771764.94246  22737206.3604   22737212.3184   22737206.511
        44.2004         41.4004
 16 12 15  0 41 30.0000000  0  9G05G02G29G25G19G23G06G12G09
 -16510735.86247 -12836064.58247  21594445.7214   21594449.3514   21594444.571
        47.2004         44.7004
 -21812050.92948 -16976201.96248  20540637.6324   20540638.7674   20540637.871
        51.2004         48.9004
  -7452001.87946  -5790393.43346  23479584.6604   23479587.8164   23479585.006
        40.9004         38.5004
 -11132101.23547  -8662450.54346  22751626.0174   22751632.9054   22751626.171
        44.1004         41.4004
    279899.18846    234433.26746  24234638.2094   24234640.5674   24234639.271
        40.1004         37.4004
  -3148403.56346  -2436816.07545  24721601.8324   24721603.1244   24721601.501
        37.0004         35.2004
 -12538509.03447  -9750623.31147  21563022.7974   21563028.9434   21563022.425
        47.9004         45.2004
 -10695575.40147  -8307270.25946  22778365.9494   22778368.5494   22778365.151
        44.1004         41.4004
  -7422030.49247  -5769586.87046  22737738.3614   22737744.4854   22737738.462
        44.2004         41.4004
 16 12 15  0 42  0.0000000  0  9G05G02G29G25G19G23G06G12G09
 -16591623.17947 -12899093.65547  21579053.0014   21579056.6704   21579052.589
        47.4004         44.9004
 -21815824.35648 -16979142.30548  20539919.5794   20539920.7224   20539920.093
        51.2004         48.7004
  -7552291.51546  -5868541.20546  23460500.7394   23460503.5954   23460500.336
        41.1004         38.6004
 -11112580.77047  -8647239.79446  22755340.9524   22755346.7824   22755340.967
        44.1004         41.6004
    391468.05846    321370.01846  24255870.2654   24255872.4534   24255871.311
        40.3004         37.9004
  -3090809.43146  -2391937.53945  24732563.5154   24732562.0704   24732564.315
        37.1004         35.3004
 -12470519.55247  -9697644.51347  21575960.9254   21575966.7164   21575959.844
        47.9004         45.2004
 -10611144.61147  -8241480.05146  22794432.3744   22794435.9354   22794431.875
        44.1004         41.4004
  -7418626.27047  -5766934.22446  22738386.5784   22738391.5644   22738386.429
        44.1004         41.4004
 16 12 15  0 42 30.0000000  0  9G05G02G29G25G19G23G06G12G09
 -16672108.71547 -12961809.65047  21563737.4144   21563740.8084   21563737.183
        47.4004         44.9004
 -21819266.73248 -16981824.67848  20539264.3524   20539265.5654   20539264.716
        51.2004         48.7004
  -7652393.29346  -5946542.58946  23441451.8804   23441454.7524   23441451.389
        41.5004         38.8004
 -11092445.30547  -8631549.83046  22759172.2964   22759178.8334   22759172.883
        44.1004         41.4004
    503172.90646    408412.71846  24277126.3794   24277129.2314   24277127.450
        40.1004         37.6004
  -3032773.58246  -2346714.80145  24743604.6234   24743606.1714   24743605.138
        37.1004         34.8004
 -12402260.24547  -9644455.46547  21588950.0984   21588955.7904   21588949.743
        47.9004         45.2004
 -10526328.05947  -8175389.24546  22810572.7994   22810575.5924   22810572.222
        44.1004         41.4004
  -7414612.94947  -5763806.94846  22739150.1364   22739155.5654   22739149.877
        44.1004         41.4004
 16 12 15  0 43  0.0000000  0  9G05G02G29G25G19G23G06G12G09
 -16752191.24847 -13024211.61747  21548498.3394   21548501.5184   21548497.710
        47.5004         44.7004
 -21822377.68648 -16984248.80648  20538672.3954   20538673.4814   20538673.159
        51.0004         48.7004
  -7752305.20546  -6024396.03146  23422439.3884   23422441.6464   23422439.171
        41.6004         39.2004
 -11071695.91247  -8615381.48846  22763120.7984   22763126.9484   22763121.190
        44.1004         41.4004
    615012.01546    495560.03846  24298408.2774   24298411.6764   24298409.192
        39.7004         37.1004
  -2974298.21246  -2301149.59545  24754732.7334   24754733.9004   24754732.774
        36.8004         34.6004
 -12333732.16447  -9591056.98447  21601990.5064   21601996.6014   21601989.757
        47.7004         45.1004
 -10441128.91447  -8109000.32246  22826785.1044   22826788.2234   22826784.809
        43.9004         41.2004
  -7409990.54447  -5760205.07346  22740029.6484   22740035.8034   22740029.539
        44.1004         41.6004
 16 12 15  0 43 30.0000000  0  9G05G02G29G25G19G23G06G12G09
 -16831868.98647 -13086298.16647  21533336.0194   21533339.0824   21533335.645
        47.5004         44.7004
 -21825157.11348 -16986414.59848  20538143.4874   20538144.4114   20538143.851
        51.0004         48.7004
  -7852025.01946  -6102099.78046  23403462.8364   23403465.6844   23403462.411
        41.6004         39.2004
 -11050333.58747  -8598735.53346  22767186.2844   22767192.7814   22767185.671
        44.1004         41.2004
    726983.82646    582810.81646  24319715.7364   24319718.9344   24319716.977
        39.2004         36.7004
  -2915385.01346  -2255243.23045  24765944.6254   24765946.1184   24765945.296
        37.3004         35.7004
 -12264936.18747  -9537449.74247  21615081.8634   21615087.7354   21615081.459
        47.7004         45.1004
 -10355550.11247  -8042315.55846  22843070.9804   22843073.6514   22843070.737
        43.9004         41.1004
  -7404758.98647  -5756128.53246  22741025.6034   22741031.3434   22741025.065
        44.2004         41.8004
 16 12 15  0 44  0.0000000  0  9G05G02G29G25G19G23G06G12G09
 -16911140.35247 -13148068.06047  21518251.2764   21518254.4524   21518250.710
        47.5004         44.9004
 -21827604.53248 -16988321.68448  20537677.9034   20537678.7144   20537678.224
        51.0004         48.5004
  -7951550.35146  -6179651.98446  23384523.7824   23384527.1704   23384523.357
        41.8004         39.3004
 -11028359.45047  -8581612.84146  22771367.5124   22771373.7964   22771367.668
        43.9004         41.2004
    839086.35646    670163.40846  24341047.6454   24341051.5424   24341048.937
        38.9004         36.4004
  -2856035.93246  -2208997.20445  24777238.0284   24777238.7704   24777238.045
        37.6004         35.7004
 -12195873.29347  -9483634.51747  21628224.1244   21628230.0544   21628223.516
        47.7004         44.9004
 -10269594.48847  -7975337.16646  22859428.2974   22859429.9424   22859427.478
        43.7004         40.9004
  -7398918.31947  -5751577.36446  22742137.0904   22742142.5254   22742136.387
        44.4004         41.8004
 16 12 15  0 44 30.0000000  0  9G05G02G29G25G19G23G06G12G09
 -16990003.74147 -13209520.03747  21503244.0014   21503247.1194   21503243.399
        47.5004         44.9004
 -21829719.79048 -16989969.94148  20537275.3154   20537276.1744   20537275.834
        51.0004         48.5004
  -8050879.12447  -6257051.03046  23365622.4194   23365625.3524   23365622.692
        42.0004         39.5004
 -11005774.66647  -8564014.31946  22775665.3204   22775671.8154   22775665.917
        43.9004         41.2004
    951318.01246    757616.59346  24362405.8324   24362407.5854   24362406.947
        39.2004         37.1004
  -2796252.75546  -2162412.93745  24788613.3594   24788614.2964   24788613.178
        37.5004         35.3004
 -12126544.49847  -9429612.10147  21641416.8354   21641422.5834   21641416.616
        47.5004         44.9004
 -10183265.60147  -7908067.91946  22875855.1354   22875857.9724   22875854.800
        43.6004         40.9004
  -7392468.60747  -5746551.61046  22743364.2544   22743369.5934   22743363.771
        44.4004         41.8004
 16 12 15  0 45  0.0000000  0  9G05G02G29G25G19G23G06G12G09
 -17068457.71347 -13270653.00447  21488314.4214   21488317.8084   21488314.408
        47.7004         45.1004
 -21831502.76648 -16991359.27848  20536935.9724   20536936.9714   20536936.481
        51.0004         48.7004
  -8150008.61147  -6334294.78146  23346758.3264   23346761.6324   23346758.138
        42.2004         39.7004
 -10982580.35447  -8545940.84246  22780079.1394   22780084.9754   22780078.803
        43.7004         41.1004
   1063677.00146    845168.98046  24383786.3744   24383789.9824   24383787.074
        39.6004         37.3004
  -2736037.31446  -2115491.83345  24800073.2404   24800074.7104   24800072.766
        37.3004         35.2004
 -12056950.75447  -9375383.23247  21654660.1944   21654666.2174   21654659.503
        47.5004         44.9004
 -10096565.90647  -7840509.73546  22892353.6684   22892356.6084   22892353.882
        43.7004         41.1004
  -7385409.91947  -5741051.33146  22744707.0384   22744712.7214   22744707.275
        44.2004         41.6004
 16 12 15  0 45 30.0000000  0  9G05G02G29G25G19G23G06G12G09
 -17146500.49947 -13331465.55547  21473463.6454   21473466.9924   21473462.934
        47.7004         45.1004
 -21832952.96048 -16992489.30348  20536659.8694   20536661.0604   20536660.601
        51.0004         48.7004
  -8248936.61847  -6411381.53346  23327933.0514   23327935.7214   23327933.085
        42.2004         39.7004
 -10958777.44647  -8527393.13946  22784608.8744   22784614.6414   22784609.355
        43.7004         41.1004
   1176161.75046    932819.39346  24405191.3204   24405195.7144   24405193.108
        39.7004         37.4004
  -2675391.24846  -2068235.17145  24811612.4604   24811616.6664   24811613.155
        37.5004         35.3004
 -11987092.78747  -9320948.48147  21667953.5084   21667959.8664   21667952.749
        47.4004         44.5004
 -10009499.10447  -7772665.47946  22908922.0594   22908925.2944   22908921.950
        43.7004         41.2004
  -7377742.12447  -5735076.42246  22746166.1294   22746171.3224   22746165.699
        43.9004         41.1004
 16 12 15  0 46  0.0000000  0  9G05G02G29G25G19G23G06G12G09
 -17224130.35747 -13391956.33947  21458690.7074   21458694.1034   21458690.362
        47.7004         45.1004
 -21834070.25648 -16993359.92548  20536447.4044   20536448.3784   20536448.038
        51.0004         48.7004
  -8347660.84647  -6488309.49846  23309146.3604   23309150.2714   23309146.372
        42.3004         39.9004
 -10934367.40947  -8508372.34546  22789253.7874   22789260.2284   22789254.006
        43.7004         41.1004
   1288770.18446   1020566.19246  24426619.4714   24426624.1764   24426618.998
        40.3004         37.9004
  -2614316.85146  -2020644.78245  24823235.3284   24823236.4434   24823235.008
        37.0004         35.0004
 -11916971.84647  -9266308.81147  21681297.3714   21681303.8954   21681297.056
        47.2004         44.5004
  -9922067.61747  -7704537.05846  22925559.3674   22925562.9104   22925559.346
        43.7004         41.1004
  -7369465.58247  -5728627.15846  22747741.3744   22747746.5504   22747740.875
        43.7004         41.1004
 16 12 15  0 46 30.0000000  0  9G05G02G29G25G19G23G06G12G09
 -17301345.77247 -13452124.19447  21443997.7974   21444000.8354   21443997.284
        47.7004         45.1004
 -21834854.23448 -16993970.82948  20536298.2874   20536299.1834   20536298.679
        51.0004         48.5004
  -8446179.06847  -6565076.95046  23290399.2254   23290402.4224   23290399.294
        42.3004         39.9004
 -10909351.27547  -8488879.27246  22794014.0564   22794020.1804   22794013.868
        43.6004         40.9004
   1401500.91046   1108408.28346  24448073.3984   24448076.3324   24448073.598
        40.6004         38.3004
  -2552815.71146  -1972721.84045  24834938.0464   24834937.1794   24834937.788
        36.4004         34.5004
 -11846588.64847  -9211464.78047  21694690.6554   21694697.0284   21694689.805
        47.2004         44.5004
  -9834274.21947  -7636126.64046  22942266.0274   22942269.1304   22942265.829
        43.7004         40.9004
  -7360580.27647  -5721703.54646  22749431.9134   22749437.5734   22749431.741
        43.7004         41.1004
 16 12 15  0 47  0.0000000  0  9G05G02G29G25G19G23G06G12G09
 -17378145.30647 -13511967.98447  21429382.8304   21429386.3274   21429382.610
        47.7004         45.1004
 -21835305.15548 -16994322.20048  20536212.4364   20536213.4264   20536212.863
        51.0004         48.5004
  -8544489.04947  -6641682.13246  23271691.3824   23271694.7964   23271691.390
        42.3004         39.7004
 -10883730.44447  -8468915.01046  22798889.1254   22798895.7904   22798889.713
        43.6004         40.7004
   1514351.79346   1196343.98546  24469547.4184   24469551.6684   24469549.174
        40.4004         37.8004
  -2490890.48846  -1924468.38445  24846722.5694   24846723.2934   24846723.263
        36.3004         34.3004
 -11775944.39447  -9156417.33147  21708133.7544   21708139.9224   21708132.840
        47.2004         44.4004
  -9746122.77147  -7567437.21246  22959041.0894   22959044.5774   22959040.745
        43.6004         40.7004
  -7351086.55447  -5714305.84446  22751239.2434   22751244.1944   22751238.930
        43.7004         41.1004
 16 12 15  0 47 30.0000000  0  9G05G02G29G25G19G23G06G12G09
 -17454527.19447 -13571486.33347  21414848.0454   21414851.2804   21414847.454
        47.7004         45.1004
 -21835422.26048 -16994413.45448  20536190.2754   20536190.9364   20536190.698
        51.0004         48.5004
  -8642588.15647  -6718123.00046  23253023.9904   23253026.4524   23253024.000
        42.3004         39.5004
 -10857506.02247  -8448480.41646  22803880.2924   22803885.8214   22803880.105
        43.6004         40.9004
   1627321.36446   1284372.16446  24491045.4324   24491047.8134   24491046.283
        39.9004         37.4004
  -2428542.42445  -1875885.50645  24858584.7314   24858590.3944   24858585.911
        35.9004         34.0004
 -11705039.87747  -9101167.08647  21721626.3104   21721632.9394   21721625.905
        47.2004         44.5004
  -9657615.95347  -7498470.87946  22975882.7874   22975886.4054   22975882.486
        43.6004         40.9004
  -7340984.41547  -5706434.04846  22753161.0174   22753167.2494   22753160.726
        43.7004         41.1004
 16 12 15  0 48  0.0000000  0  9G05G02G29G25G19G23G06G12G09
 -17530490.19447 -13630678.27547  21400392.5324   21400396.4444   21400392.260
        47.9004         45.2004
 -21835205.45348 -16994244.52448  20536231.3524   20536232.4554   20536231.911
        51.0004         48.5004
  -8740474.17047  -6794397.82946  23234396.7754   23234399.6904   23234397.052
        42.2004         39.5004
 -10830679.37047  -8427576.54646  22808984.9304   22808990.9514   22808985.003
        43.4004         40.9004
   1740407.88446   1372491.47646  24512564.3154   24512569.1404   24512565.461
        39.6004         37.3004
  -2365773.36645  -1826974.59745  24870534.2244   24870532.2344   24870531.322
        35.0004         33.1004
 -11633876.02347  -9045714.75647  21735168.0884   21735174.9294   21735167.978
        47.2004         44.5004
  -9568756.86347  -7429230.06146  22992792.3094   22992795.5104   22992791.707
        43.6004         40.9004
  -7330274.12947  -5698088.38046  22755199.1584   22755204.7044   22755198.562
        43.7004         41.1004
 16 12 15  0 48 30.0000000  0  9G05G02G29G25G19G23G06G12G09
 -17606032.70947 -13689542.56847  21386017.4244   21386020.7604   21386017.074
        47.9004         45.2004
 -21834654.63648 -16993815.32148  20536336.4024   20536337.2944   20536336.788
        51.0004         48.7004
  -8838144.96247  -6870504.94446  23215810.2934   23215813.4154   23215810.057
        42.0004         39.3004
 -10803251.81147  -8406204.44146  22814204.3224   22814210.2574   22814204.483
        43.6004         40.9004
   1853609.34746   1460700.36046  24534105.4524   24534109.1294   24534105.573
        39.0004         36.4004
  -2302585.63345  -1777737.38845  24882555.3564   24882554.4834   24882554.727
        34.3004         32.9004
 -11562453.88947  -8990061.16647  21748759.9394   21748765.9224   21748759.295
        47.0004         44.4004
  -9479548.94447  -7359717.42546  23009768.7184   23009771.5894   23009768.686
        43.4004         40.7004
  -7318955.99547  -5689269.05246  22757353.1784   22757358.4494   22757353.262
        43.7004         41.1004
 16 12 15  0 49  0.0000000  0  9G05G02G29G25G19G23G06G12G09
 -17681153.24248 -13748078.04647  21371722.1804   21371725.7884   21371721.997
        48.1004         45.2004
 -21833769.07348 -16993125.27948  20536504.8644   20536505.8224   20536505.326
        51.0004         48.5004
  -8935598.03747  -6946442.41746  23197266.3954   23197268.6804   23197266.329
        42.2004         39.7004
 -10775224.52147  -8384365.00946  22819537.7564   22819543.9754   22819537.623
        43.6004         40.9004
   1966924.11746   1548997.54446  24555668.2064   24555671.7064   24555667.652
        38.3004         36.0004
  -2238980.97645  -1728175.30645  24894657.4994   24894660.3654   24894657.237
        33.8004         32.6004
 -11490774.29147  -8934206.95247  21762400.0934   21762406.3374   21762399.158
        47.0004         44.2004
  -9389994.91947  -7289935.08946  23026810.0194   23026813.1374   23026809.445
        43.2004         40.6004
  -7307030.13147  -5679976.15446  22759622.7604   22759627.8644   22759622.874
        43.9004         41.2004
 16 12 15  0 49 30.0000000  0  9G05G02G29G25G19G23G06G12G09
 -17755849.99448 -13806283.31147  21357508.2004   21357511.7004   21357507.739
        48.1004         45.4004
 -21832549.26448 -16992174.78748  20536736.9744   20536738.0224   20536737.617
        51.0004         48.7004
  -9032831.44547  -7022208.70946  23178763.6144   23178766.3694   23178763.247
        42.3004         39.9004
 -10746599.13047  -8362059.52346  22824984.6594   22824991.2824   22824984.779
        43.6004         40.9004
   2080350.51246   1637381.72845  24577253.3354   24577255.5494   24577254.305
        38.0004         35.7004
  -2174961.73845  -1678290.25045  24906842.4764   24906843.2614   24906844.884
        34.5004         33.3004
 -11418838.39947  -8878153.04447  21776088.4634   21776095.4204   21776088.060
        47.0004         44.2004
  -9300098.21747  -7219885.72946  23043916.3484   23043919.3074   23043915.903
        43.2004         40.4004
  -7294497.01347  -5670210.08646  22762007.6024   22762012.9694   22762006.695
        43.9004         41.2004
 16 12 15  0 50  0.0000000  0  9G05G02G29G25G19G23G06G12G09
 -17830121.45048 -13864157.17347  21343374.4174   21343378.0924   21343374.165
        48.1004         45.4004
 -21830994.58148 -16990963.35048  20537032.7274   20537033.8964   20537033.399
        51.0004         48.7004
  -9129842.11447  -7097801.42646  23160302.9024   23160305.4544   23160302.880
        42.7004         40.2004
 -10717376.83347  -8339288.92246  22830545.6124   22830551.8254   22830545.930
        43.4004         40.9004
   2193886.84646   1725851.55346  24598858.8824   24598862.3934   24598859.449
        38.2004         36.2004
  -2110529.54845  -1628083.36645  24919104.0504   24919102.6114   24919104.724
        34.3004         32.9004
 -11346646.98947  -8821900.02747  21789826.5114   21789832.9834   21789825.885
        46.9004         44.2004
  -9209861.59047  -7149571.50346  23061088.5554   23061090.8504   23061087.663
        43.0004         40.4004
  -7281356.84747  -5659970.99046  22764507.8114   22764513.3104   22764507.845
        43.9004         41.2004
 16 12 15  0 50 30.0000000  0  9G05G02G29G25G19G23G06G12G09
 -17903966.45548 -13921698.74447  21329322.3824   21329326.1934   21329321.655
        48.1004         45.4004
 -21829104.60748 -16989490.64848  20537392.2514   20537393.3464   20537392.808
        51.0004         48.5004
  -9226628.17147  -7173219.13746  23141884.9174   23141887.4684   23141885.163
        42.9004         40.4004
 -10687559.03047  -8316054.29046  22836220.3724   22836225.9604   22836220.060
        43.6004         40.9004
   2307531.38546   1814405.67846  24620484.3664   24620487.3954   24620485.816
        38.5004         36.2004
  -2045686.28145  -1577556.12745  24931438.9624   24931440.6034   24931440.151
        33.3004         32.4004
 -11274201.04747  -8765448.67347  21803613.0224   21803618.9844   21803612.088
        46.9004         44.4004
  -9119288.27647  -7078994.90446  23078323.2684   23078326.2534   23078323.677
        42.9004         40.2004
  -7267609.93647  -5649259.11946  22767123.3844   22767129.3394   22767123.988
        43.9004         41.2004
 16 12 15  0 51  0.0000000  0  9G05G02G29G25G19G23G06G12G09
 -17977383.33448 -13978906.69847  21315351.9134   21315355.3574   21315351.545
        48.1004         45.4004
 -21826879.28348 -16987756.63948  20537816.0044   20537816.9234   20537816.458
        51.0004         48.5004
  -9323186.91047  -7248459.71646  23123510.8734   23123513.4514   23123510.643
        43.0004         40.4004
 -10657147.20447  -8292356.77246  22842007.1554   22842013.6984   22842006.983
        43.7004         41.1004
   2421282.23646   1903042.68746  24642129.9454   24642133.8174   24642131.499
        38.7004         36.7004
  -1980434.09945  -1526710.37845  24943862.1224   24943863.2474   24943859.634
        33.7004         32.7004
 -11201501.52747  -8708799.72647  21817447.0614   21817452.9864   21817446.290
        46.9004         44.2004
  -9028381.34147  -7008158.34346  23095623.0384   23095625.4474   23095622.182
        42.9004         40.0004
  -7253256.67947  -5638074.77746  22769855.1824   22769860.6334   22769854.674
        43.7004         41.1004
 16 12 15  0 51 30.0000000  0  9G05G02G29G25G19G23G06G12G09
 -18050370.39548 -14035779.73347  21301462.4214   21301466.3114   21301462.349
        48.1004         45.4004
 -21824318.46448 -16985761.20248  20538303.2024   20538304.1824   20538303.554
        51.0004         48.5004
  -9419516.12347  -7323521.44746  23105179.7644   23105182.7184   23105179.465
        43.2004         40.4004
 -10626142.74147  -8268197.46146  22847907.0894   22847913.5724   22847907.335
        43.7004         41.1004
   2535137.75146   1991761.24446  24663795.8284   24663800.4794   24663797.455
        39.0004         36.7004
  -1914775.05345  -1475547.49145  24956358.5404   24956353.8264   24956358.292
        33.8004         32.9004
 -11128549.33247  -8651953.88347  21831329.1084   21831335.3764   21831328.524
        46.9004         44.2004
  -8937143.92847  -6937064.27646  23112984.8964   23112987.0134   23112983.975
        42.7004         39.9004
  -7238297.40947  -5626418.21146  22772701.6704   22772707.2014   22772701.674
        43.6004         40.9004
 16 12 15  0 52  0.0000000  0  9G05G02G29G25G19G23G06G12G09
 -18122926.37348 -14092316.86347  21287655.6944   21287659.2944   21287654.727
        48.1004         45.6004
 -21821421.86248 -16983504.11548  20538854.3524   20538855.4924   20538854.987
        51.0004         48.5004
  -9515613.40947  -7398402.46046  23086892.9994   23086896.0324   23086893.093
        43.0004         40.4004
 -10594547.19847  -8243577.57146  22853919.2954   22853925.5154   22853919.617
        43.7004         41.2004
   2649096.05146   2080559.89646  24685482.1054   24685486.6064   24685482.200
        39.2004         37.1004
  -1848711.15445  -1424069.07945  24968924.4934   24968924.8014   24968923.692
        33.3004         32.0004
 -11055345.51847  -8594911.98747  21845259.8914   21845265.6324   21845258.914
        46.9004         44.2004
  -8845579.21947  -6865715.16446  23130408.2264   23130411.4374   23130407.553
        42.5004         39.7004
  -7222732.61947  -5614289.81146  22775663.0364   22775669.6074   22775663.674
        43.7004         41.1004
 16 12 15  0 52 30.0000000  0  9G05G02G29G25G19G23G06G12G09
 -18195050.23248 -14148517.26347  21273931.1064   21273934.8654   21273931.116
        48.2004         45.6004
 -21818189.27248 -16980985.22248  20539469.6014   20539470.7134   20539470.249
        51.0004         48.5004
  -9611477.04547  -7473101.40446  23068651.0094   23068653.6064   23068650.574
        43.0004         40.2004
 -10562362.12547  -8218498.30146  22860044.4984   22860050.6284   22860044.263
        43.9004         41.2004
   2763155.36146   2169437.23446  24707185.5914   24707191.4104   24707186.623
        39.7004         37.4004
  -1782244.48945  -1372276.94645  24981571.8744                   24981572.346
        32.3004         31.7004
 -10981891.06447  -8537674.78547  21859237.8834   21859243.8944   21859237.462
        46.9004         44.4004
  -8753690.72747  -6794113.75846  23147894.1234   23147897.7524   23147894.283
        42.5004         39.9004
  -7206562.79547  -5601689.95546  22778740.6904   22778746.1794   22778740.594
        43.9004         41.2004
 16 12 15  0 53  0.0000000  0  9G05G02G29G25G19G23G06G12G09
 -18266740.14048 -14204379.52447  21260288.8474   21260293.0464   21260288.362
        48.2004         45.8004
 -21814620.33448 -16978204.23648  20540148.6884   20540149.6274   20540149.127
        50.8004         48.5004
  -9707103.59647  -7547615.60146  23050454.3194   23050456.0564   23050453.744
        42.9004         40.2004
 -10529588.95447  -8192960.77346  22866280.8154   22866286.7054   22866280.919
        43.7004         41.1004
   2877314.27846   2258392.14846  24728911.0854   24728914.3764   24728911.035
        39.7004         37.6004
  -1715377.22945  -1320172.59945  24994298.5194   24994297.3824   24994300.460
        32.8004         32.2004
 -10908186.79747  -8480242.91647  21873263.3294   21873269.5484   21873262.701
        46.9004         44.2004
  -8661480.71547  -6722261.83046  23165442.0754   23165444.6974   23165441.920
        42.5004         39.9004
  -7189788.33347  -5588618.94646  22781932.7254   22781938.5184   22781932.883
        43.9004         41.4004
 16 12 15  0 53 30.0000000  0  9G05G02G29G25G19G23G06G12G09
 -18337994.52648 -14259902.41847  21246729.7114   21246733.1044   21246729.329
        48.2004         45.8004
 -21810714.88348 -16975161.03248  20540891.9224   20540892.8174   20540892.524
        50.8004         48.5004
  -9802491.24847  -7621943.64446  23032301.8794   23032304.5564   23032301.752
        42.7004         40.0004
 -10496229.15847  -8166966.12946  22872628.6774   22872635.3214   22872628.593
        43.7004         41.1004
   2991570.69846   2347423.08346  24750653.2034   24750657.2034   24750655.111
        39.6004         37.1004
  -1648111.15845  -1267757.42945  25007094.2264                   25007095.379
        31.9004         31.2004
 -10834233.64247  -8422617.10847  21887336.1924   21887342.2194   21887335.581
        46.9004         44.2004
  -8568952.57147  -6650161.99346  23183048.6214   23183051.7964   23183048.962
        42.5004         39.7004
  -7172409.59747  -5575077.07446  22785239.8424   22785245.4194   22785239.822
        44.1004         41.4004
 16 12 15  0 54  0.0000000  0  9G05G02G29G25G19G23G06G12G09
 -18408812.21348 -14315085.02947  21233253.6274   21233257.0484   21233253.367
        48.4004         45.8004
 -21806472.83848 -16971855.55148  20541699.0994   20541700.1264   20541699.666
        50.8004         48.4004
  -9897637.57947  -7696083.64846  23014196.0814   23014198.3734   23014195.711
        42.7004         40.0004
 -10462284.47747  -8140515.74546  22879088.4204   22879094.6764   22879088.117
        43.6004         40.9004
   3105923.04746   2436528.70146  24772414.2074   24772417.7584   24772414.249
        38.9004         36.6004
  -1580448.31145  -1215033.18045  25019972.9744                   25019971.219
        31.2004         30.8004
 -10760032.65147  -8364798.17947  21901455.8964   21901462.5054   21901455.054
        46.9004         44.0004
  -8476109.64347  -6577816.87546  23200716.2424   23200719.7494   23200716.339
        42.3004         39.7004
  -7154427.24647  -5561064.85346  22788661.5354   22788667.7664   22788661.733
        44.1004         41.4004
 16 12 15  0 54 30.0000000  0  8G05G02G29G25G19G06G12G09
 -18479191.80248 -14369926.26647  21219860.6484   21219864.3244   21219860.082
        48.4004         45.9004
 -21801893.84448 -16968287.51348  20542570.2644   20542571.4374   20542570.679
        50.8004         48.4004
  -9992540.54847  -7770034.03446  22996136.9574   22996138.7494   22996136.909
        42.7004         40.2004
 -10427756.41747  -8113610.78346  22885658.8744   22885665.1314   22885658.972
        43.6004         40.9004
   3220369.45246   2525707.65946  24794193.0334   24794194.9384   24794194.214
        38.3004         36.0004
 -10685584.76247  -8306786.85547  21915623.0364   21915629.3064   21915622.263
        46.7004         44.0004
  -8382955.22047  -6505229.03246  23218443.0524   23218447.3364   23218442.514
        42.3004         39.7004
  -7135841.76847  -5546582.67746  22792198.0994   22792204.4624   22792197.955
        43.7004         41.1004
 16 12 15  0 55  0.0000000  0  8G05G02G29G25G19G06G12G09
 -18549131.83948 -14424424.99347  21206551.5684   21206555.3624   21206550.797
        48.4004         45.8004
 -21796977.39248 -16964456.52248  20543505.8364   20543506.9684   20543506.510
        50.8004         48.4004
 -10087197.06547  -7843792.36446  22978124.0994   22978126.7254   22978123.765
        42.7004         40.2004
 -10392646.58747  -8086252.49046  22892340.2234   22892346.3284   22892340.243
        43.6004         40.9004
   3334908.14546   2614958.50646  24815987.6784   24815991.9244   24815987.107
        38.5004         36.4004
 -10610890.85847  -8248583.83947  21929836.5364   21929843.1994   21929836.221
        46.7004         44.0004
  -8289492.26647  -6432400.77646  23236228.2484   23236232.3704   23236228.009
        42.3004         39.9004
  -7116653.70447  -5531630.95246  22795849.7854   22795855.6474   22795849.108
        43.7004         40.9004
 16 12 15  0 55 30.0000000  0  8G05G02G29G25G19G06G12G09
 -18618631.01348 -14478580.18547  21193326.5734   21193330.0074   21193326.253
        48.4004         45.8004
 -21791723.89548 -16960362.89448  20544505.8824   20544506.7494   20544506.220
        50.8004         48.4004
 -10181605.19447  -7917357.14946  22960158.7604   22960161.1544   22960158.580
        43.0004         40.6004
 -10356956.65047  -8058442.15546  22899131.5044   22899138.0934   22899131.578
        43.6004         40.9004
   3449537.24946   2704279.89346  24837800.6734   24837805.8804   24837800.991
        38.3004         36.2004
 -10535951.95947  -8190189.92147  21944097.0674   21944103.1864   21944096.632
        46.5004         43.9004
  -8195724.22147  -6359334.78046  23254072.0294   23254076.2054   23254071.727
        42.5004         40.0004
  -7096863.66947  -5516210.15046  22799615.4984   22799621.8244   22799615.020
        43.7004         41.1004
 16 12 15  0 56  0.0000000  0  8G05G02G29G25G19G06G12G09
 -18687687.68848 -14532390.57147  21180185.4014   21180188.5954   21180184.966
        48.4004         45.8004
 -21786132.68248 -16956006.11448  20545569.5984   20545570.7994   20545570.209
        50.8004         48.4004
 -10275762.15347  -7990726.21646  22942241.1474   22942244.0034   22942241.482
        43.4004         40.9004
 -10320688.28347  -8030181.11946  22906033.3404   22906039.3684   22906033.537
        43.4004         40.7004
   3564255.16046   2793670.43545  24859631.4944   24859635.8494   24859633.310
        38.0004         35.9004
 -10460768.95147  -8131605.78647  21958404.2714   21958410.2504   21958403.207
        46.7004         43.9004
  -8101653.80447  -6286033.18646  23271972.7334   23271976.2784   23271972.959
        42.5004         39.7004
  -7076472.22347  -5500320.71746  22803496.1524   22803501.8054   22803495.868
        43.7004         41.1004
 16 12 15  0 56 30.0000000  0  8G05G02G29G25G19G06G12G09
 -18756301.00248 -14585855.49247  21167128.6734   21167132.0024   21167128.259
        48.4004         45.8004
 -21780203.75748 -16951386.18148  20546697.9094   20546699.0084   20546698.460
        50.8004         48.4004
 -10369665.64747  -8063897.77746  22924372.2404   22924374.8754   22924372.193
        43.6004         40.9004
 -10283843.17947  -8001470.67746  22913044.3584   22913050.9534   22913044.772
        43.4004         40.7004
   3679060.05146   2883128.77045  24881478.1274   24881480.5334   24881479.034
        37.6004         35.5004
 -10385342.89547  -8072832.27347  21972756.8324   21972763.3104   21972756.704
        46.5004         43.9004
  -8007284.71547  -6212498.85346  23289931.5374   23289933.9414   23289930.499
        42.2004         39.5004
  -7055480.13347  -5483963.23646  22807490.7454   22807495.9144   22807490.810
        43.6004         40.9004
 16 12 15  0 57  0.0000000  0  8G05G02G29G25G19G06G12G09
 -18824469.40448 -14638973.72947  21154156.8384   21154160.0574   21154156.099
        48.4004         45.8004
 -21773936.84848 -16946502.88848  20547890.5334   20547891.6264   20547890.994
        50.8004         48.4004
 -10463313.42747  -8136870.08046  22906551.4714   22906554.1424   22906551.664
        43.6004         40.9004
 -10246423.00847  -7972312.10846  22920164.8904   22920171.7924   22920164.895
        43.2004         40.6004
   3793950.23346   2972653.56745  24903342.4474   24903343.9754   24903343.591
        37.3004         35.3004
 -10309674.64147  -8013870.03047  21987156.3454   21987162.8944   21987155.462
        46.5004         43.7004
  -7912619.55347  -6138733.80446  23307945.5184   23307948.5274   23307944.785
        42.0004         39.3004
  -7033887.88847  -5467138.10246  22811599.7194   22811604.8464   22811599.078
        43.4004         40.7004
 16 12 15  0 57 30.0000000  0  8G05G02G29G25G19G06G12G09
 -18892191.38148 -14691744.09847  21141269.4344   21141272.9814   21141269.084
        48.6004         45.9004
 -21767331.84048 -16941356.14648  20549147.5214   20549148.5854   20549148.108
        50.8004         48.4004
 -10556703.11747  -8209641.26946  22888779.9214   22888782.6804   22888779.583
        43.6004         40.9004
 -10208429.48847  -7942706.79546  22927394.8324   22927401.9534   22927395.549
        43.2004         40.6004
   3908924.15146   3062243.58845  24925220.7904   24925224.7464   24925220.336
        37.8004         35.7004
 -10233765.12047  -7954719.78347  22001601.2084   22001608.0104   22001600.878
        46.3004         43.7004
  -7817661.44746  -6064740.50246  23326014.4544   23326018.1884   23326013.954
        41.6004         39.0004
  -7011696.24847  -5449845.91346  22815821.9714   22815827.5784   22815821.856
        43.2004         40.6004
 16 12 15  0 58  0.0000000  0  8G05G02G29G25G19G06G12G09
 -18959465.72648 -14744165.65847  21128467.7464   21128471.1264   21128467.454
        48.6004         45.9004
 -21760388.53548 -16935945.78448  20550468.5584   20550469.6904   20550469.132
        50.8004         48.4004
 -10649832.21047  -8282209.39546  22871058.4374   22871061.4094   22871057.724
        43.6004         40.9004
 -10169864.42547  -7912656.11046  22934734.0854   22934740.0844   22934733.884
        43.2004         40.6004
   4023979.81646   3151897.27245  24947113.8894   24947118.0524   24947115.058
        37.8004         35.9004
 -10157615.32047  -7895382.30447  22016092.2454   22016098.4174   22016091.499
        46.3004         43.7004
  -7722413.76946  -5990521.56246  23344140.2064   23344142.5614   23344140.313
        41.6004         39.0004
  -6988905.90247  -5432087.19946  22820158.9044   22820164.5984   22820158.837
        43.2004         40.7004
 16 12 15  0 58 30.0000000  0  8G05G02G29G25G19G06G12G09
 -19026291.28248 -14796237.52547  21115751.4064   21115754.7244   21115750.727
        48.8004         46.1004
 -21753106.46548 -16930271.45548  20551854.2474   20551855.4564   20551854.796
        50.8004         48.4004
 -10742698.21647  -8354572.52546  22853386.3744   22853389.4804   22853386.636
        43.7004         41.1004
 -10130729.54147  -7882161.42046  22942181.2944   22942187.4754   22942181.062
        43.2004         40.6004
   4139115.20246   3241613.10346  24969022.1904   24969028.3484   24969025.170
        38.0004         36.2004
 -10081226.17747  -7835858.33247  22030628.3634   22030634.9624   22030628.083
        46.3004         43.7004
  -7626879.82846  -5916079.57146  23362320.4494   23362323.0254   23362319.952
        41.8004         39.3004
  -6965517.53147  -5413862.49246  22824609.6734   22824615.6484   22824609.776
        43.6004         40.9004
 16 12 15  0 59  0.0000000  0  8G05G02G29G25G19G06G12G09
 -19092666.76048 -14847958.67447  21103120.4764   21103124.0834   21103120.016
        48.8004         46.1004
 -21745485.63148 -16924333.15748  20553304.5654   20553305.8864   20553305.084
        50.8004         48.2004
 -10835298.67847  -8426728.74046  22835765.6234   22835767.8394   22835765.223
        43.7004         41.1004
 -10091026.71347  -7851224.18546  22949736.2564   22949742.7174   22949736.798
        43.2004         40.6004
   4254328.90046   3331389.89946  24990946.8734   24990952.2244   24990948.493
        38.0004         36.0004
 -10004598.69947  -7776148.64147  22045210.2894   22045216.8534   22045209.629
        46.3004         43.5004
  -7531062.91147  -5841417.06346  23380553.7994   23380556.3414   23380553.472
        42.0004         39.5004
  -6941532.03347  -5395172.49346  22829174.4244   22829180.2354   22829174.287
        43.7004         41.1004
 16 12 15  0 59 30.0000000  0  8G05G02G29G25G19G06G12G09
 -19158590.43348 -14899327.76447  21090575.4574   21090578.9254   21090574.926
        48.8004         46.1004
 -21737525.82548 -16918130.71548  20554819.2584   20554820.5764   20554819.740
        50.7004         48.2004
 -10927631.39847  -8498676.33146  22818194.8884   22818197.3314   22818194.619
        43.7004         41.1004
 -10050757.64547  -7819845.71046  22957399.3694   22957406.0834   22957398.772
        43.0004         40.4004
   4369619.48246   3421226.63446  25012886.7484   25012890.9274   25012887.015
        38.7004         36.7004
  -9927733.72247  -7716253.87247  22059837.3354   22059843.6274   22059836.843
        46.2004         43.5004
  -7434966.05047  -5766536.41746  23398839.5074   23398843.7114   23398839.565
        42.3004         39.9004
  -6916950.05047  -5376017.70546  22833852.2164   22833857.9244   22833852.396
        43.7004         40.9004
 16 12 15  1  0  0.0000000  0  8G05G02G29G25G19G06G12G09
 -19224061.41048 -14950344.10247  21078116.6854   21078120.2224   21078115.928
        48.8004         46.3004
 -21729226.82748 -16911663.97048  20556398.7734   20556399.5684   20556399.254
        50.7004         48.4004
 -11019693.71747  -8570413.21046  22800676.1884   22800678.9324   22800675.852
        43.7004         41.1004
 -10009924.28647  -7788027.52446  22965169.3714   22965175.7954   22965169.412
        43.0004         40.4004
   4484984.20746   3511121.16646  25034840.9774   25034844.5564   25034841.176
        38.9004         36.7004
  -9850632.26147  -7656174.83647  22074509.1264   22074515.5614   22074508.709
        46.2004         43.5004
  -7338592.40547  -5691440.09646  23417178.7754   23417182.5374   23417178.802
        42.2004         39.7004
  -6891772.41847  -5356398.77646  22838643.3564   22838648.5144   22838643.232
        43.6004         40.7004
 16 12 15  1  0 30.0000000  0  8G05G02G29G25G19G06G12G09
 -19289078.22048 -15001006.54947  21065744.5674   21065747.8104   21065744.327
        48.9004         46.3004
 -21720588.60648 -16904932.89948  20558042.4684   20558043.4144   20558043.051
        50.7004         48.2004
 -11111483.43947  -8641937.68246  22783208.8314   22783211.7154   22783208.556
        43.9004         41.2004
  -9968528.43347  -7755771.04346  22973047.2334   22973053.4654   22973047.760
        42.9004         40.2004
   4600422.05946   3601072.67146  25056807.5734   25056812.5934   25056809.990
        39.2004         36.9004
  -9773295.22547  -7595912.24147  22089225.9664   22089231.9604   22089225.397
        46.2004         43.3004
  -7241945.05647  -5616130.51146  23435570.2504   23435573.5764   23435570.659
        42.0004         39.2004
  -6865999.92847  -5336316.32146  22843547.6204   22843553.6634   22843547.164
        43.4004         40.7004
 16 12 15  1  1  0.0000000  0  8G05G02G29G25G19G06G12G09
 -19353639.95048 -15051314.37847  21053458.7334   21053462.1254   21053458.571
        48.9004         46.3004
 -21711610.66848 -16897937.10548  20559750.6354   20559751.8554   20559751.212
        50.7004         48.2004
 -11202997.68447  -8713247.48346  22765794.5104   22765797.4184   22765794.319
        44.1004         41.2004
  -9926571.97347  -7723077.71546  22981030.5184   22981037.4714   22981030.994
        42.9004         40.2004
   4715931.15646   3691079.68646  25078788.1804   25078792.8394   25078789.514
        39.0004         36.6004
  -9695723.60247  -7535466.85047  22103987.2834   22103993.2464   22103987.026
        46.0004         43.3004
  -7145027.39746  -5540610.27246  23454012.8694   23454016.3224   23454012.634
        41.8004         39.0004
  -6839633.46447  -5315771.02246  22848565.4114   22848570.6294   22848564.841
        43.6004         40.9004
 16 12 15  1  1 30.0000000  0  8G05G02G29G25G19G06G12G09
 -19417745.41048 -15101266.68347  21041260.1204   21041263.3304   21041259.394
        48.9004         46.3004
 -21702293.09648 -16890676.66948  20561523.7814   20561525.0794   20561524.453
        50.7004         48.2004
 -11294234.42847  -8784341.06646  22748432.6004   22748434.8644   22748432.425
        44.1004         41.4004
  -9884056.90147  -7689949.11346  22989121.2624   22989127.8654   22989121.299
        42.9004         40.4004
   4831509.63646   3781140.82445  25100782.1014   25100787.5914   25100782.245
        37.8004         35.2004
  -9617918.35747  -7474839.42047  22118793.0344   22118799.4894   22118792.682
        46.0004         43.3004
  -7047842.49946  -5464881.81746  23472507.0804   23472509.2744   23472506.622
        41.3004         38.6004
  -6812673.94947  -5294763.61246  22853695.4364   22853700.7034   22853695.217
        43.7004         41.1004
 16 12 15  1  2  0.0000000  0  8G05G02G29G25G19G06G12G09
 -19481393.36348 -15150862.48747  21029148.2684   21029151.6244   21029148.107
        48.9004         46.3004
 -21692635.63748 -16883151.38748  20563361.6694   20563362.8254   20563362.269
        50.7004         48.2004
 -11385191.58947  -8855216.78346  22731124.3064   22731126.6944   22731124.247
        44.2004         41.6004
  -9840985.03547  -7656386.64246  22997318.1214   22997323.7764   22997317.959
        42.9004         40.2004
   4947155.74046   3871254.66245  25122790.4994   25122792.0794   25122788.052
        36.4004         34.1004
  -9539880.38147  -7414030.64547  22133643.4664   22133649.9504   22133642.828
        46.0004         43.2004
  -6950393.53546  -5388947.57646  23491051.0124   23491053.6394   23491049.799
        40.9004         38.5004
  -6785122.20947  -5273294.72446  22858938.4914   22858943.4804   22858938.480
        43.6004         40.9004
 16 12 15  1  2 30.0000000  0  8G05G02G29G25G19G06G12G09
 -19544581.98048 -15200100.37347  21017123.9104   21017127.0044   21017123.461
        48.9004         46.3004
 -21682637.96848 -16875361.00848  20565264.1504   20565265.3504   20565264.601
        50.7004         48.2004
 -11475865.87547  -8925872.09046  22713869.6194   22713872.2374   22713869.106
        44.2004         41.4004
  -9797358.31447  -7622391.82346  23005619.4424   23005626.0464   23005619.730
        42.9004         40.2004
   5062867.55446   3961419.63045  25144809.0984   25144811.0064   25144810.575
        36.3004         34.3004
  -9461610.63847  -7353041.27547  22148537.4064   22148544.1834   22148537.033
        46.0004         43.2004
  -6852683.78446  -5312810.13246  23509643.7624   23509646.8244   23509644.643
        40.9004         38.3004
  -6756979.12547  -5251365.04546  22864293.1894   22864298.8104   22864293.638
        43.6004         40.7004
 16 12 15  1  3  0.0000000  0  8G05G02G29G25G19G06G12G09
 -19607310.50148 -15248979.73547  21005187.0494   21005190.0904   21005186.676
        48.9004         46.3004
 -21672300.04948 -16867305.48448  20567231.2444   20567232.5994   20567231.709
        50.7004         48.2004
 -11566255.24947  -8996305.37446  22696668.8334   22696671.7044   22696668.887
        44.2004         41.4004
  -9753178.74947  -7587966.20346  23014026.3034   23014032.9844   23014026.608
        42.7004         40.0004
   5178643.47746   4051634.57245  25166840.6964   25166843.3844   25166842.733
        36.4004         34.8004
  -9383110.05347  -7291872.02647  22163475.3434   22163482.0774   22163474.835
        45.8004         43.3004
  -6754716.43946  -5236471.97546  23528287.3564   23528290.4114   23528286.685
        40.9004         38.6004
  -6728245.69547  -5228975.36346  22869760.9854   22869767.3614   22869760.922
        43.4004         40.6004
 16 12 15  1  3 30.0000000  0  7G05G02G29G25G06G12G09
 -19669577.80448 -15297499.70547  20993337.8894   20993341.1104   20993337.193
        48.9004         46.3004
 -21661621.62048 -16858984.63448  20569263.5414   20569264.4864   20569264.085
        50.7004         48.2004
 -11656357.11047  -9066514.62846  22679523.2084   22679525.3014   22679522.455
        44.1004         41.4004
  -9708448.33147  -7553111.34646  23022538.6084   23022545.7064   23022539.405
        42.9004         40.4004
  -9304379.58947  -7230523.65147  22178457.8944   22178464.4264   22178457.347
        46.0004         43.3004
  -6656494.73646  -5159935.61746  23546977.6434   23546981.2034   23546977.423
        41.1004         38.5004
  -6698922.85347  -5206126.41146  22875341.8554   22875347.0424   22875341.645
        43.2004         40.6004
 16 12 15  1  4  0.0000000  0  7G05G02G29G25G06G12G09
 -19731383.00848 -15345659.60647  20981576.5324   20981579.9834   20981576.361
        48.9004         46.3004
 -21650602.25948 -16850398.12448  20571360.3834   20571361.4684   20571360.890
        50.7004         48.2004
 -11746168.74647  -9136497.73646  22662432.8854   22662435.2644   22662432.207
        44.2004         41.6004
  -9663169.10947  -7517828.86546  23031155.1454   23031161.3264   23031154.914
        42.9004         40.2004
  -9225420.23347  -7168996.91947  22193483.4494   22193490.1114   22193482.810
        46.0004         43.2004
  -6558021.30646  -5083203.10846  23565716.7544   23565720.3424   23565716.809
        40.9004         38.6004
  -6669011.62647  -5182818.96246  22881032.6344   22881038.8454   22881033.026
        43.2004         40.4004
 16 12 15  1  4 30.0000000  0  7G05G02G29G25G06G12G09
 -19792724.59748 -15393458.23747  20969903.5054   20969906.9934   20969903.080
        48.9004         46.5004
 -21639242.36848 -16841546.25548  20573522.0744   20573523.2944   20573522.628
        50.7004         48.2004
 -11835688.45847  -9206253.37446  22645397.6324   22645400.2784   22645397.339
        44.4004         41.9004
  -9617342.98447  -7482120.21446  23039875.9474   23039882.2094   23039875.944
        42.7004         40.2004
  -9146232.78147  -7107292.43847  22208552.0184   22208558.9724   22208551.639
        45.8004         43.3004
  -6459299.71346  -5006277.22646  23584503.0524   23584507.0064   23584502.287
        41.1004         38.6004
  -6638512.93247  -5159053.75946  22886837.4664   22886842.1234   22886836.161
        43.0004         40.2004
 16 12 15  1  5  0.0000000  0  7G05G02G29G25G06G12G09
 -19853601.42448 -15440894.72347  20958319.0794   20958322.7894   20958318.856
        49.1004         46.5004
 -21627541.59748 -16832428.77648  20575748.8864   20575749.8044   20575749.449
        50.7004         48.2004
 -11924913.13747  -9275779.10447  22628418.6254   22628421.5984   22628418.733
        44.8004         42.1004
  -9570972.11447  -7445987.09246  23048699.9284   23048706.0744   23048699.686
        42.9004         40.2004
  -9066818.31347  -7045411.07347  22223663.9734   22223670.9534   22223663.946
        46.0004         43.3004
  -6360333.38446  -4929160.64246  23603336.3104   23603339.1564   23603336.316
        41.5004         39.0004
  -6607427.86947  -5134831.63546  22892752.3244   22892757.7554   22892752.517
        43.0004         40.4004
 16 12 15  1  5 30.0000000  0  7G05G02G29G25G06G12G09
 -19914012.57348 -15487968.34347  20946823.4384   20946827.0974   20946823.006
        49.1004         46.5004
 -21615499.79348 -16823045.55548  20578040.2034   20578041.2314   20578040.631
        50.7004         48.0004
 -12013840.63347  -9345073.26146  22611495.8064   22611498.8704   22611496.081
        44.8004         41.9004
  -9524058.56247  -7409431.09846  23057627.1764   23057634.1134   23057627.181
        42.7004         40.0004
  -8987177.74047  -6983353.51647  22238819.6584   22238825.9344   22238818.778
        45.8004         43.0004
  -6261125.54946  -4851855.85846  23622214.7984   23622217.3004   23622214.934
        41.1004         38.6004
  -6575757.48547  -5110153.40746  22898779.0064   22898784.1694   22898779.096
        42.9004         40.4004
 16 12 15  1  6  0.0000000  0  7G05G02G29G25G06G12G09
 -19973957.04348 -15534678.31747  20935416.3614   20935419.9564   20935415.830
        49.1004         46.6004
 -21603116.50648 -16813396.24548  20580396.6094   20580397.7464   20580397.129
        50.7004         48.2004
 -12102468.69047  -9414134.09546  22594630.8534   22594633.4584   22594630.647
        44.8004         41.9004
  -9476604.39147  -7372453.85346  23066656.9204   23066663.6574   23066657.025
        42.7004         40.2004
  -8907312.02247  -6921120.53447  22254017.2024   22254023.5964   22254016.900
        45.6004         43.0004
  -6161679.26146  -4774365.27746  23641138.4584   23641141.3794   23641138.719
        40.9004         38.3004
  -6543502.87247  -5085019.96346  22904916.0674   22904922.1934   22904915.658
        43.0004         40.6004
 16 12 15  1  6 30.0000000  0  7G05G02G29G25G06G12G09
 -20033433.32148 -15581023.45347  20924098.3854   20924101.8854   20924098.085
        49.1004         46.6004
 -21590391.79148 -16803480.88948  20582818.0484   20582819.1774   20582818.636
        50.7004         48.2004
 -12190794.34947  -9482959.29247  22577823.0324   22577825.9564   22577822.811
        44.8004         42.1004
  -9428611.61147  -7335056.90446  23075789.6534   23075796.4824   23075789.512
        42.7004         40.2004
  -8827221.99447  -6858712.75847  22269258.0454   22269264.1774   22269257.284
        45.6004         43.0004
  -6061997.61446  -4696691.30646  23660106.4364   23660110.7244   23660106.405
        40.6004         37.9004
  -6510665.00147  -5059432.01946  22911165.8284   22911171.3484   22911165.601
        43.6004         41.1004
 16 12 15  1  7  0.0000000  0  7G05G02G29G25G06G12G09
 -20092440.41748 -15627003.00547  20912869.5804   20912873.0634   20912869.056
        49.1004         46.6004
 -21577325.65548 -16793299.49148  20585304.5994   20585305.6734   20585305.181
        50.7004         48.2004
 -12278815.45547  -9551547.18147  22561073.0184   22561076.2384   22561072.871
        44.8004         42.3004
  -9380082.57847  -7297242.09946  23085024.3134   23085031.5334   23085024.944
        42.7004         40.2004
  -8746908.80447  -6796131.08747  22284541.6354   22284547.7264   22284540.865
        45.6004         43.0004
  -5962084.15246  -4618836.68446  23679120.2664   23679124.2714   23679119.691
        40.6004         38.3004
  -6477245.20047  -5033390.62446  22917525.2744   22917531.2214   22917525.297
        43.7004         41.4004
 16 12 15  1  7 30.0000000  0  7G05G02G29G25G06G12G09
 -20150977.43548 -15672616.26347  20901730.6544   20901733.9364   20901730.317
        49.3004         46.6004
 -21563917.72548 -16782851.75748  20587855.7914   20587857.2084   20587856.275
        50.5004         48.0004
 -12366529.59947  -9619895.88647  22544381.7324   22544385.0984   22544381.626
        44.9004         42.3004
  -9331019.29547  -7259010.99046  23094361.4544   23094367.7644   23094362.116
        42.7004         40.2004
  -8666373.18947  -6733376.09147  22299866.5844   22299872.9764   22299866.159
        45.6004         42.8004
  -5861941.94446  -4540803.85346  23698176.6874   23698180.2984   23698175.849
        40.6004         38.1004
  -6443244.48747  -5006896.57646  22923995.1854   22924001.6334   22923995.345
        43.9004         41.2004
 16 12 15  1  8  0.0000000  0  7G05G02G29G25G06G12G09
 -20209043.16648 -15717862.28047  20890680.9024   20890684.3594   20890680.452
        49.1004         46.6004
 -21550167.90448 -16772137.62348  20590472.3754   20590473.6814   20590472.933
        50.5004         48.0004
 -12453934.30547  -9688003.45347  22527749.2244   22527752.0104   22527749.055
        44.9004         42.1004
  -9281423.90447  -7220365.26246  23103798.9244   23103805.1794   23103798.919
        42.5004         40.0004
  -8585616.20047  -6670448.61347  22315234.3864   22315240.4364   22315233.506
        45.5004         42.8004
  -5761574.07046  -4462595.15146  23717275.5004   23717279.9494   23717275.803
        40.6004         38.1004
  -6408663.99147  -4979950.74746  22930575.9984   22930581.5654   22930574.806
        44.1004         41.4004
 16 12 15  1  8 30.0000000  0  7G05G02G29G25G06G12G09
 -20266636.63748 -15762740.30847  20879721.2354   20879724.4764   20879721.006
        49.3004         46.6004
 -21536075.98248 -16761156.91048  20593154.0644   20593155.1274   20593154.422
        50.5004         48.0004
 -12541026.59047  -9755867.58147  22511176.2064   22511178.9594   22511176.283
        44.9004         42.3004
  -9231298.60347  -7181306.59446  23113337.1104   23113344.0354   23113337.031
        42.5004         39.9004
  -8504638.72447  -6607349.32547  22330643.6984   22330650.0784   22330643.053
        45.5004         42.6004
  -5660983.44946  -4384212.89646  23736418.2624   23736422.0434   23736418.609
        40.9004         38.5004
  -6373504.95047  -4952554.10646  22937266.4904   22937272.1874   22937266.465
        44.1004         41.4004
 16 12 15  1  9  0.0000000  0  7G05G02G29G25G06G12G09
 -20323756.82748 -15807249.53447  20868851.9334   20868854.9284   20868851.573
        49.3004         46.8004
 -21521641.93248 -16749909.60248  20595900.5344   20595902.0064   20595901.063
        50.5004         48.0004
 -12627804.22747  -9823486.53047  22494662.8004   22494665.9464   22494662.755
        44.9004         42.3004
  -9180645.68147  -7141836.80446  23122977.2714   23122982.8064   23122976.864
        42.5004         39.9004
  -8423441.79247  -6544079.02047  22346094.5074   22346101.7884   22346094.369
        45.3004         42.6004
  -5560173.42146  -4305659.64046  23755601.9714   23755604.3764   23755602.164
        40.8004         38.3004
  -6337768.60047  -4924707.60946  22944067.1244   22944072.5074   22944067.193
        43.9004         41.1004
 16 12 15  1  9 30.0000000  0  7G05G02G29G25G06G12G09
 -20380402.76448 -15851389.22147  20858072.1624   20858075.8544   20858072.015
        49.3004         46.8004
 -21506865.47948 -16738395.50048  20598712.4674   20598713.9344   20598713.027
        50.5004         48.0004
 -12714264.89847  -9890858.49347  22478209.9404   22478212.7634   22478209.687
        45.1004         42.5004
  -9129467.30347  -7101957.58746  23132715.6514   23132721.7514   23132715.445
        42.5004         39.9004
  -8342026.24447  -6480638.36247  22361587.8084   22361594.3544   22361587.205
        45.3004         42.5004
  -5459147.52646  -4226938.19446  23774825.4394   23774829.8624   23774825.625
        40.6004         37.9004
  -6301456.12747  -4896412.17746  22950977.2464   22950982.1134   22950977.014
        43.7004         40.7004
 16 12 15  1 10  0.0000000  0  7G05G02G29G25G06G12G09
 -20436573.26348 -15895158.43547  20847383.5044   20847386.8174   20847383.023
        49.5004         46.8004
 -21491746.40848 -16726614.41448  20601589.7984   20601591.0104   20601590.289
        50.5004         48.0004
 -12800406.56647  -9957981.88247  22461817.7944   22461820.8264   22461817.353
        45.1004         42.5004
  -9077765.62847  -7061670.59246  23142553.3774   23142560.7134   23142553.714
        42.3004         39.9004
  -8260393.02047  -6417028.08047  22377122.0074   22377128.4904   22377121.337
        45.3004         42.6004
  -5357908.80446  -4148050.90246  23794089.6314   23794094.6334   23794089.167
        40.4004         37.9004
  -6264568.73847  -4867668.75846  22957996.1614   22958001.2914   22957996.574
        43.4004         40.4004
 16 12 15  1 10 30.0000000  0  7G05G02G29G25G06G12G09
 -20492267.69448 -15938556.68747  20836785.2024   20836788.6154   20836785.000
        49.5004         46.8004
 -21476284.72348 -16714566.35848  20604531.9374   20604533.2524   20604532.548
        50.5004         48.0004
 -12886226.17947 -10024854.31847  22445486.7864   22445489.8534   22445486.668
        45.3004         42.6004
  -9025543.03347  -7020977.68246  23152491.5854   23152498.1884   23152492.027
        42.3004         39.9004
  -8178543.12147  -6353248.96947  22392697.5944   22392704.4754   22392697.563
        45.3004         42.5004
  -5256460.46846  -4069000.30146  23813395.8624   23813400.0804   23813395.745
        40.4004         37.9004
  -6227107.76347  -4838478.39946  22965124.9294   22965130.1324   22965124.360
        43.0004         40.4004
 16 12 15  1 11  0.0000000  0  7G05G02G29G25G06G12G09
 -20547484.91648 -15981583.09047  20826277.8564   20826281.1554   20826277.315
        49.3004         46.8004
 -21460480.43648 -16702251.34147  20607539.5814   20607540.6034   20607539.986
        50.5004         47.8004
 -12971721.30747 -10091473.90547  22429217.3634   22429220.8354   22429217.225
        45.3004         42.5004
  -8972801.81647  -6979880.66246  23162527.8984   23162534.7554   23162528.089
        42.3004         39.9004
  -8096477.50447  -6289301.76747  22408314.1424   22408320.6824   22408313.659
        45.1004         42.5004
  -5154806.00846  -3989789.07846  23832739.0164   23832744.5534   23832738.789
        40.1004         37.8004
  -6189074.53947  -4808842.11946  22972361.9174   22972367.3844   22972362.281
        42.9004         40.0004
 16 12 15  1 11 30.0000000  0  7G05G02G29G25G06G12G09
 -20602224.01048 -16024236.92947  20815861.2394   20815864.5494   20815860.579
        49.5004         46.8004
 -21444333.34648 -16689669.21547  20610612.2694   20610613.5104   20610612.880
        50.3004         47.8004
 -13056889.64747 -10157838.85447  22413010.8354   22413013.4654   22413010.330
        45.1004         42.5004
  -8919544.14247  -6938381.20346  23172662.3194   23172669.1174   23172662.340
        42.3004         39.5004
  -8014197.04047  -6225187.14847  22423971.6274   22423978.1744   22423971.263
        45.1004         42.6004
  -5052948.16646  -3910419.40346  23852123.0844   23852126.4564   23852123.614
        40.1004         37.6004
  -6150470.27547  -4778760.88046  22979708.1274   22979714.0444   22979707.827
        42.9004         40.4004
 16 12 15  1 12  0.0000000  0  7G05G02G29G25G06G12G09
 -20656484.10848 -16066517.51947  20805535.7134   20805539.1964   20805535.544
        49.5004         46.8004
 -21427843.43448 -16676819.94747  20613750.0814   20613751.0754   20613750.507
        50.3004         47.8004
 -13141728.58647 -10223947.12847  22396866.0204   22396869.5964   22396865.790
        45.1004         42.6004
  -8865772.40247  -6896481.16546  23182894.8424   23182901.0214   23182894.833
        42.0004         39.3004
  -7931702.69347  -6160905.86747  22439670.2824   22439676.7744   22439669.736
        45.1004         42.5004
  -4950890.05546  -3830893.62446  23871545.0254   23871547.7164   23871543.768
        40.1004         37.8004
  -6111296.34647  -4748235.74646  22987163.0914   22987168.7034   22987163.055
        43.0004         40.6004
 16 12 15  1 12 30.0000000  0  7G05G02G29G25G06G12G09
 -20710263.99048 -16108423.92347  20795301.6744   20795305.2384   20795301.220
        49.5004         46.8004
 -21411010.52548 -16663703.41547  20616953.2944   20616954.4254   20616953.869
        50.3004         47.7004
 -13226236.24347 -10289797.25547  22380784.9494   22380787.8864   22380784.690
        45.3004         42.5004
  -8811488.94047  -6854182.39346  23193225.2904   23193231.5574   23193224.778
        42.2004         39.5004
  -7848995.44247  -6096458.69347  22455408.9814   22455415.1254   22455408.586
        45.1004         42.5004
  -4848635.20546  -3751214.56446  23891002.5704   23891006.1174   23891002.588
        40.3004         37.8004
  -6071554.16747  -4717267.82546  22994725.6424   22994731.1924   22994725.748
        43.2004         40.6004
 16 12 15  1 13  0.0000000  0  7G05G02G29G25G06G12G09
 -20763562.96248 -16149955.59847  20785159.3554   20785162.7914   20785158.747
        49.5004         47.0004
 -21393833.96948 -16650319.09747  20620221.7884   20620222.9914   20620222.314
        50.3004         47.8004
 -13310409.13447 -10355386.53047  22364767.2164   22364770.0614   22364767.058
        45.3004         42.6004
  -8756696.01147  -6811486.63846  23203651.4964   23203657.6084   23203651.986
        42.2004         39.5004
  -7766076.11147  -6031846.26647  22471187.9954   22471194.0184   22471187.378
        45.1004         42.5004
  -4746186.67446  -3671384.57946  23910498.7344   23910501.8574   23910497.794
        40.3004         37.9004
  -6031244.96847  -4685858.07046  23002396.1414   23002401.6674   23002395.553
        43.4004         40.7004
 16 12 15  1 13 30.0000000  0  7G05G02G29G25G06G12G09
 -20816380.16448 -16191111.85847  20775108.6494   20775112.0094   20775108.262
        49.5004         47.0004
 -21376314.23448 -16636667.36747  20623555.7824   20623556.8444   20623556.381
        50.3004         47.8004
 -13394245.01547 -10420713.20547  22348813.7654   22348816.8684   22348813.602
        45.3004         42.6004
  -8701396.09247  -6768395.81846  23214174.6124   23214181.4414   23214174.701
        42.0004         39.3004
  -7682945.78847  -5967069.41947  22487006.8944   22487013.1404   22487006.325
        45.1004         42.3004
  -4643547.91546  -3591406.37546  23930029.3604   23930033.4464   23930029.601
        40.1004         37.6004
  -5990370.29447  -4654007.68946  23010174.8434   23010180.3834   23010173.862
        43.4004         40.9004
 16 12 15  1 14  0.0000000  0  7G05G02G29G25G06G12G09
 -20868714.46448 -16231891.82847  20765149.5424   20765153.0934   20765149.151
        49.5004         46.8004
 -21358451.06048 -16622748.02747  20626955.1464   20626956.1304   20626955.464
        50.3004         47.7004
 -13477741.92747 -10485775.74947  22332925.0154   22332927.7934   22332924.737
        45.5004         42.8004
  -8645591.57246  -6724911.80946  23224793.8644   23224800.7304   23224793.790
        41.8004         39.3004
  -7599605.36747  -5902128.86547  22502865.9234   22502872.2464   22502865.412
        44.9004         42.3004
  -4540721.82146  -3511282.18046  23949596.4184   23949599.6134   23949596.793
        39.9004         37.4004
  -5948931.53847  -4621717.75546  23018060.7924   23018065.7694   23018060.868
        43.6004         41.1004
 16 12 15  1 14 30.0000000  0  7G05G02G29G25G06G12G09
 -20920565.17248 -16272294.98947  20755282.6444   20755286.5104   20755282.196
        49.5004         47.0004
 -21340244.05048 -16608560.76147  20630419.8514   20630420.7334   20630420.344
        50.3004         47.8004
 -13560897.37147 -10550572.21347  22317101.3234   22317103.7184   22317101.086
        45.5004         43.0004
  -8589284.74647  -6681036.38346  23235508.7724   23235515.9434   23235509.202
        42.0004         39.5004
  -7516055.72147  -5837025.27647  22518765.1334   22518771.4424   22518764.998
        44.9004         42.3004
  -4437711.63146  -3431014.54446  23969198.6404   23969203.2794   23969198.756
        39.9004         37.8004
  -5906930.06247  -4588989.34346  23026052.9524   23026058.0964   23026052.682
        43.6004         40.9004
 16 12 15  1 15  0.0000000  0  7G05G02G29G25G06G12G09
 -20971931.46048 -16312320.67447  20745507.9654   20745511.5184   20745507.985
        49.6004         47.0004
 -21321693.64248 -16594105.90647  20633949.7744   20633950.9074   20633950.128
        50.3004         47.7004
 -13643708.65047 -10615100.49647  22301342.4704   22301345.7874   22301342.432
        45.6004         43.0004
  -8532478.11847  -6636771.52146  23246319.3094   23246325.4334   23246319.493
        42.0004         39.3004
  -7432297.87347  -5771759.44947  22534703.6054   22534710.3004   22534703.032
        44.9004         42.3004
  -4334520.76346  -3350606.11146  23988834.9484   23988839.4224   23988834.118
        39.9004         37.4004
  -5864367.34947  -4555823.61246  23034152.3074   23034157.9194   23034151.857
        43.4004         40.7004
 16 12 15  1 15 30.0000000  0  7G05G02G29G25G06G12G09
 -21022812.14948 -16351967.96147  20735825.8354   20735829.2594   20735825.858
        49.6004         47.2004
 -21302799.47348 -16579383.18547  20637545.3034   20637546.3554   20637545.890
        50.3004         47.7004
 -13726172.86447 -10679358.32947  22285650.1884   22285653.1204   22285649.829
        45.6004         42.8004
  -8475174.05047  -6592119.02046  23257223.5694   23257229.7354   23257223.542
        42.0004         39.3004
  -7348332.68247  -5706332.05347  22550681.0754   22550688.1314   22550680.903
        44.9004         42.1004
  -4231151.95146  -3270059.04246  24008505.7014   24008509.8014   24008505.415
        39.9004         37.6004
  -5821244.89547  -4522221.70846  23042358.5134   23042363.3824   23042358.432
        43.2004         40.6004
 16 12 15  1 16  0.0000000  0  7G05G02G29G25G06G12G09
 -21073206.84348 -16391236.56147  20726236.0264   20726239.7134   20726235.525
        49.6004         47.2004
 -21283561.41148 -16564392.49947  20641206.0324   20641207.3894   20641206.605
        50.3004         47.7004
 -13808288.16047 -10743344.28547  22270024.2894   22270027.2604   22270023.784
        45.6004         42.8004
  -8417375.02546  -6547080.84846  23268222.1734   23268228.6864   23268222.208
        41.8004         39.3004
  -7264161.13747  -5640743.87046  22566699.0874   22566705.4094   22566698.376
        44.6004         41.9004
  -4127608.65146  -3189375.99446  24028209.5744   24028213.6954   24028209.255
        39.7004         37.3004
  -5777564.17447  -4488184.79746  23050669.9034   23050675.9744   23050670.046
        43.0004         40.2004
 16 12 15  1 16 30.0000000  0  7G05G02G29G25G06G12G09
 -21123114.46148 -16430125.61047  20716739.0594   20716742.3754   20716738.605
        49.6004         47.0004
 -21263979.42048 -16549133.81347  20644932.5874   20644933.8664   20644933.155
        50.2004         47.7004
 -13890051.80547 -10807056.22247  22254464.9494   22254467.5264   22254464.959
        45.6004         42.8004
  -8359083.49647  -6501658.90446  23279314.7594   23279321.6354   23279315.143
        42.0004         39.3004
  -7179784.14247  -5574995.58746  22582755.5084   22582762.2134   22582754.657
        44.6004         41.9004
  -4023894.09546  -3108559.47746  24047945.7344   24047950.3274   24047945.609
        39.7004         37.3004
  -5733326.69047  -4453714.03846  23059088.5614   23059094.4394   23059088.752
        42.7004         40.0004
 16 12 15  1 17  0.0000000  0  7G05G02G29G25G06G12G09
 -21172534.47148 -16468634.70947  20707334.4554   20707337.7634   20707334.089
        49.6004         47.0004
 -21244053.35848 -16533607.02647  20648724.3854   20648725.4844   20648724.873
        50.2004         47.7004
 -13971461.21347 -10870492.14147  22238973.4894   22238975.7944   22238973.217
        45.6004         43.0004
  -8300301.94046  -6455855.12146  23290500.4034   23290507.1784   23290500.390
        41.8004         39.3004
  -7095202.66247  -5509087.95646  22598850.6824   22598857.3784   22598850.377
        44.6004         41.9004
  -3920011.44746  -3027612.03046  24067714.7454   24067718.1144   24067714.758
        39.6004         37.4004
  -5688534.01347  -4418810.66046  23067611.5814   23067617.7864   23067611.855
        42.5004         39.7004
 16 12 15  1 17 30.0000000  0  7G05G02G29G25G06G12G09
 -21221465.78148 -16506763.00747  20698023.3784   20698026.5984   20698022.994
        49.6004         47.2004
 -21223783.13848 -16517812.06747  20652581.6824   20652582.9834   20652582.318
        50.2004         47.8004
 -14052514.66947 -10933650.69247  22223549.4384   22223552.0974   22223549.451
        45.6004         43.2004
  -8241032.86246  -6409671.45046  23301778.9554   23301786.2034   23301778.571
        41.8004         39.2004
  -7010417.58947  -5443021.68346  22614984.9394   22614991.2514   22614984.161
        44.4004         41.8004
  -3815963.91246  -2946536.06946  24087514.3164   24087517.9774   24087514.280
        39.9004         37.6004
  -5643187.61947  -4383475.82446  23076240.8724   23076246.1384   23076240.101
        42.0004         39.3004
 16 12 15  1 18  0.0000000  0  7G05G02G29G25G06G12G09
 -21269907.88348 -16544510.11247  20688804.8904   20688808.4214   20688804.435
        49.6004         47.2004
 -21203168.77848 -16501748.95047  20656504.3584   20656505.8954   20656504.924
        50.2004         47.7004
 -14133208.76247 -10996529.22047  22208193.9054   22208196.8174   22208193.814
        45.6004         43.0004
  -8181278.89446  -6363109.95446  23313150.6354   23313156.7934   23313150.325
        41.6004         39.2004
  -6925430.01347  -5376797.61046  22631157.2984   22631164.3784   22631156.783
        44.2004         41.8004
  -3711754.89546  -2865334.27846  24107343.8954   24107348.4174   24107343.066
        39.9004         37.6004
  -5597289.26746  -4347710.88146  23084975.6184   23084980.4934   23084975.396
        41.8004         39.3004
 16 12 15  1 18 30.0000000  0  7G05G02G29G25G06G12G09
 -21317859.56248 -16581875.05447  20679680.3484   20679683.6834   20679679.849
        49.6004         47.2004
 -21182210.08148 -16485417.51047  20660492.5404   20660494.0694   20660493.129
        50.2004         47.5004
 -14213541.33947 -11059126.03447  22192907.2624   22192910.1314   22192906.968
        45.6004         43.0004
  -8121042.34446  -6316172.41846  23324612.8524   23324619.2804   23324612.954
        41.6004         39.2004
  -6840240.64847  -5310416.30446  22647368.5834   22647375.5644   22647367.989
        44.4004         41.8004
  -3607387.39246  -2784009.00646  24127204.4034   24127208.3474   24127205.285
        39.9004         37.4004
  -5550840.36447  -4311516.94046  23093814.2344   23093819.9964   23093814.245
        42.2004         39.7004
 16 12 15  1 19  0.0000000  0  7G05G02G29G25G06G12G09
 -21365320.53148 -16618857.63247  20670648.7224   20670652.1824   20670648.272
        49.8004         47.3004
 -21160907.05348 -16468817.76747  20664546.4324   20664547.9114   20664546.943
        50.2004         47.7004
 -14293509.98147 -11121439.27147  22177690.1894   22177692.3244   22177689.890
        45.8004         43.3004
  -8060325.90346  -6268860.94846  23336166.6814   23336173.6624   23336166.276
        41.6004         39.2004
  -6754850.59647  -5243878.61446  22663617.4844   22663624.3854   22663617.128
        44.4004         41.8004
  -3502864.35946  -2702562.51346  24147094.8704   24147098.8534   24147094.918
        39.7004         37.4004
  -5503842.61747  -4274895.32246  23102757.6334   23102763.8874   23102757.674
        42.5004         40.0004
 16 12 15  1 19 30.0000000  0  7G05G02G29G25G06G12G09
 -21412290.16848 -16655457.35647  20661710.8134   20661714.1834   20661710.283
        49.8004         47.3004
 -21139259.59948 -16451949.64047  20668665.7774   20668667.3624   20668666.320
        50.2004         47.7004
 -14373112.35547 -11183467.11347  22162542.1554   22162544.7454   22162541.912
        46.2004         43.5004
  -7999132.16046  -6221177.54846  23347811.3224   23347818.0334   23347811.553
        41.6004         39.0004
  -6669260.81247  -5177185.28846  22679904.4604   22679911.6394   22679903.897
        44.2004         41.8004
  -3398189.26446  -2620997.55046  24167013.5054   24167017.2204   24167012.793
        39.6004         37.3004
  -5456297.70447  -4237847.35746  23111804.8044   23111811.0344   23111804.420
        42.7004         40.2004
 16 12 15  1 20  0.0000000  0  7G05G02G29G25G06G12G09
 -21458767.42448 -16691673.40347  20652866.3534   20652869.8644   20652866.366
        50.0004         47.3004
 -21117267.50648 -16434812.96047  20672850.6624   20672852.2934   20672851.590
        50.2004         47.5004
 -14452345.90747 -11245207.55347  22147463.9484   22147466.9774   22147463.975
        46.2004         43.2004
  -7937463.51046  -6173124.09246  23359547.0144   23359552.7204   23359547.384
        41.5004         39.0004
  -6583472.08147  -5110336.94146  22696230.0834   22696237.0754   22696229.273
        44.4004         41.8004
  -3293364.89546  -2539316.24546  24186960.8474   24186965.6124   24186960.695
        39.4004         37.1004
  -5408207.08947  -4200374.16346  23120956.6194   23120962.3874   23120956.357
        42.9004         40.4004
 16 12 15  1 20 30.0000000  0  7G05G02G29G25G06G12G09
 -21504751.64748 -16727505.26747  20644115.6124   20644119.3934   20644115.276
        49.8004         47.3004
 -21094930.81448 -16417407.76847  20677101.4594   20677102.5454   20677101.911
        50.2004         47.5004
 -14531208.31747 -11306658.78947  22132457.4354   22132460.2964   22132456.991
        46.2004         43.5004
  -7875322.64546  -6124702.66946  23371371.4934   23371377.8804   23371371.386
        41.5004         38.8004
  -6497485.43847  -5043334.38546  22712592.6744   22712600.0014   22712592.156
        44.6004         41.9004
  -3188394.80446  -2457521.42446  24206937.2884   24206940.2574   24206936.507
        39.6004         37.4004
  -5359572.55647  -4162477.13446  23130211.6394   23130216.5374   23130211.894
        43.0004         40.4004
 16 12 15  1 21  0.0000000  0  8G05G02G29G20G25G06G12G09
 -21550242.10648 -16762952.38347  20635459.3204   20635462.7734   20635458.630
        49.8004         47.3004
 -21072249.25848 -16399733.84047  20681417.5854   20681418.7624   20681418.040
        50.2004         47.5004
 -14609696.79747 -11367818.65547  22117521.9734   22117524.1064   22117521.511
        46.2004         43.5004
   -129266.20744    -85559.713 3                  24207557.693
        26.4004         19.200
  -7812712.08946  -6075915.25846  23383285.6994   23383292.7154   23383286.208
        41.3004         38.8004
  -6411301.77647  -4976178.30846  22728993.2534   22729000.4444   22728992.179
        44.4004         41.8004
  -3083282.06946  -2375615.43746  24226938.6474   24226942.7914   24226938.756
        39.6004         37.3004
  -5310395.73647  -4124157.55146  23139569.5884   23139574.7954   23139569.473
        42.9004         40.2004
 16 12 15  1 21 30.0000000  0  8G05G02G29G20G25G06G12G09
 -21595238.40948 -16798014.44047  20626896.8944   20626900.4294   20626896.787
        50.0004         47.5004
 -21049223.26048 -16381791.52447  20685799.3164   20685800.5794   20685799.641
        50.2004         47.5004
 -14687808.94147 -11428685.27547  22102657.2854   22102659.9444   22102656.956
        46.3004         43.7004
   -219904.80944   -156188.032 2                  24190238.861
        26.4004         14.400
  -7749634.66346  -6026764.05746  23395289.2804   23395296.1994   23395289.326
        41.5004         39.0004
  -6324922.15647  -4908869.53646  22745430.4894   22745437.6724   22745429.450
        44.4004         41.6004
  -2978029.78046  -2293600.73446  24246967.4654   24246972.1314   24246967.055
        39.6004         37.3004
  -5260678.45347  -4085416.82346  23149029.8264   23149035.9124   23149030.164
        42.9004         40.2004
 16 12 15  1 22  0.0000000  0  7G05G02G29G25G06G12G09
 -21639739.41848 -16832690.55647  20618428.6384   20618432.0604   20618427.974
        50.0004         47.5004
 -21025852.37348 -16363580.46947  20690246.5444   20690247.9594   20690247.048
        50.0004         47.5004
 -14765542.37047 -11489256.79047  22087864.9104   22087867.8004   22087864.584
        46.2004         43.3004
  -7686092.78346  -5977250.95146  23407380.8314   23407387.7024   23407380.905
        41.3004         38.8004
  -6238347.34647  -4841408.67646  22761905.4084   22761912.0874   22761904.943
        44.2004         41.6004
  -2872641.08946  -2211479.70746  24267022.1764   24267026.8234   24267022.038
        39.4004         37.1004
  -5210422.29747  -4046256.21946  23158593.9794   23158600.3244   23158593.039
        42.7004         40.2004
 16 12 15  1 22 30.0000000  0  8G05G02G29G20G25G06G12G09
 -21683744.94148 -16866980.57247  20610054.6274   20610057.9464   20610054.287
        50.0004         47.5004
 -21002136.64948 -16345100.70447  20694759.7324   20694760.6844   20694760.308
        50.0004         47.3004
 -14842894.68247 -11549531.32847  22073145.4384   22073148.3844   22073145.103
        46.2004         43.5004
   -219904.80944
        26.4004
  -7622089.20846  -5927378.05946  23419560.0424   23419567.2574   23419559.842
        41.3004         38.8004
  -6151578.43647  -4773796.55546  22778416.6324   22778423.0604   22778415.418
        44.1004         41.2004
  -2767119.62046  -2129255.24146  24287102.6564   24287106.5164   24287102.819
        39.6004         37.4004
  -5159629.10447  -4006677.13946  23168259.1434   23168264.9004   23168259.281
        42.7004         39.9004
 16 12 15  1 23  0.0000000  0  8G05G02G29G20G25G06G12G09
 -21727254.07748 -16900883.79447  20601775.0234   20601778.6774   20601774.549
        50.2004         47.5004
 -20978076.12048 -16326352.25347  20699338.2094   20699339.3954   20699338.637
        50.0004         47.3004
 -14919863.42847 -11609506.98547  22058498.6554   22058502.0354   22058498.423
        46.3004         43.7004
   -219904.80944
        26.4004
  -7557626.49246  -5877147.41546  23431826.8784   23431834.1704   23431827.665
        41.3004         38.8004
  -6064616.17647  -4706033.77546  22794965.1044   22794972.3124   22794964.411
        44.1004         41.4004
  -2661467.93046  -2046929.28146  24307207.1674   24307211.5694   24307207.491
        39.7004         37.4004
  -5108300.47047  -3966680.82246  23178027.4774   23178032.7154   23178027.158
        42.5004         39.7004
 16 12 15  1 23 30.0000000  0  8G05G02G29G20G25G06G12G09
 -21770266.53448 -16934399.99747  20593589.8814   20593593.5904   20593589.320
        50.0004         47.5004
 -20953670.71848 -16307335.07647  20703982.3054   20703983.5234   20703983.099
        50.0004         47.3004
 -14996446.34147 -11669181.99847  22043925.2614   22043928.6914   22043925.126
        46.3004         43.7004
   -219904.80944
        26.4004
  -7492707.52446  -5826561.24046  23444180.9574   23444187.1324   23444181.012
        41.3004         38.6004
  -5977461.78447  -4638121.30146  22811550.1454   22811556.9014   22811549.033
        44.1004         41.1004
  -2555689.29646  -1964504.43546  24327336.4784   24327339.6234   24327334.833
        39.4004         37.1004
  -5056438.45047  -3926268.88846  23187896.2974   23187901.4604   23187896.077
        42.3004         39.9004
 16 12 15  1 24  0.0000000  0  7G05G02G29G25G06G12G09
 -21812781.61148 -16967528.63347  20585499.5924   20585503.0284   20585499.186
        50.2004         47.5004
 -20928920.36448 -16288049.10147  20708692.3504   20708693.4324   20708692.805
        50.0004         47.3004
 -15072640.57147 -11728554.13347  22029426.3544   22029429.2104   22029426.033
        46.3004         43.7004
  -7427334.73946  -5775621.44646  23456620.9904   23456627.7334   23456621.333
        41.3004         38.8004
  -5890115.94847  -4570059.64546  22828171.7174   22828178.2384   22828171.798
        43.9004         41.1004
  -2449786.88446  -1881983.11746  24347489.4674   24347493.0784   24347489.279
        39.6004         37.3004
  -5004044.57647  -3885442.51946  23197866.5354   23197872.1274   23197865.686
        42.2004         39.5004
 16 12 15  1 24 30.0000000  0  7G05G02G29G25G06G12G09
 -21854798.49948 -17000269.06847  20577504.1674   20577507.5214   20577503.775
        50.2004         47.7004
 -20903824.94348 -16268494.24847  20713467.7804   20713468.9454   20713468.412
        50.0004         47.3004
 -15148443.87447 -11787621.65747  22015001.2424   22015003.6444   22015001.111
        46.5004         43.7004
  -7361510.93546  -5724330.21146  23469147.0504   23469153.2764   23469147.306
        41.3004         38.6004
  -5802579.68547  -4501849.57546  22844829.0234   22844835.1994   22844828.444
        43.6004         40.7004
  -2343764.11846  -1799368.04646  24367664.8604   24367668.3234   24367665.072
        39.7004         37.4004
  -4951120.75247  -3844203.20346  23207937.1824   23207943.5984   23207937.214
        42.2004         39.5004
 16 12 15  1 25  0.0000000  0  7G05G02G29G25G06G12G09
 -21896316.80148 -17032620.99847  20569603.4934   20569607.0384   20569603.072
        50.2004         47.7004
 -20878384.43648 -16248670.49247  20718308.9554   20718310.2014   20718309.581
        50.0004         47.3004
 -15223853.75147 -11846382.61347  22000651.3894   22000654.1314   22000651.404
        46.5004         43.9004
  -7295238.76446  -5672689.58146  23481757.8294   23481765.0694   23481757.739
        41.1004         38.6004
  -5714853.83247  -4433491.79746  22861522.1324   22861529.4364   22861521.490
        43.4004         40.7004
  -2237623.74746  -1716661.30746  24387863.1354   24387866.7344   24387862.446
        39.7004         37.4004
  -4897668.69947  -3802552.28446  23218109.5224   23218114.9014   23218109.218
        42.2004         39.7004
 16 12 15  1 25 30.0000000  0  7G05G02G29G25G06G12G09
 -21937335.88448 -17064583.92647  20561797.7634   20561801.1894   20561797.293
        50.2004         47.7004
 -20852598.85148 -16228577.84547  20723215.6084   20723216.9944   20723216.447
        50.0004         47.3004
 -15298868.49547 -11904835.67647  21986376.7964   21986379.9094   21986376.340
        46.7004         44.0004
  -7228521.09346  -5620701.83846  23494454.0984   23494461.2714   23494454.102
        41.1004         38.8004
  -5626939.54247  -4364987.18446  22878251.4824   22878259.1254   22878250.660
        43.4004         40.7004
  -2131369.05746  -1633865.51546  24408081.7944   24408085.2554   24408082.249
        39.4004         37.1004
  -4843690.45747  -3760491.34446  23228380.8684   23228385.7894   23228381.080
        42.2004         39.5004
 16 12 15  1 26  0.0000000  0  7G05G02G29G25G06G12G09
 -21977855.14548 -17096157.37447  20554087.3784   20554090.4164   20554086.923
        50.2004         47.7004
 -20826468.06448 -16208216.20247  20728188.5364   20728189.7424   20728189.082
        50.0004         47.3004
 -15373484.80147 -11962978.26447  21972177.2844   21972180.2894   21972177.250
        46.7004         43.9004
  -7161360.56946  -5568368.98846  23507234.4574   23507241.0334   23507234.426
        41.1004         38.6004
  -5538837.63847  -4296336.37046  22895017.2634   22895024.4974   22895017.554
        43.4004         40.7004
  -2025003.28146  -1550983.11046  24428322.3674   24428326.6754   24428321.413
        38.9004         36.6004
  -4789187.76647  -3718021.73646  23238752.1534   23238757.4134   23238752.514
        42.0004         39.5004
 16 12 15  1 26 30.0000000  0  7G05G02G29G25G06G12G09
 -22017874.38148 -17127341.19247  20546471.9054   20546475.3714   20546471.352
        50.2004         47.7004
 -20799992.36548 -16187585.79947  20733226.5384   20733227.8844   20733227.015
        50.0004         47.2004
 -15447700.07347 -12020808.36347  21958054.9594   21958057.8614   21958054.725
        46.7004         44.0004
  -7093759.94546  -5515693.21746  23520098.6304   23520104.9454   23520098.775
        41.3004         38.8004
  -5450549.03147  -4227540.08146  22911818.7924   22911824.8404   22911817.662
        43.4004         40.7004
  -1918529.51546  -1468016.62346  24448584.2454   24448588.0164   24448582.915
        38.9004         36.7004
  -4734162.50747  -3675144.93146  23249223.2934   23249229.1904   23249222.617
        42.2004         39.7004
 16 12 15  1 27  0.0000000  0  7G05G02G29G25G06G12G09
 -22057392.87448 -17158134.82747  20538951.7274   20538955.2484   20538951.329
        50.2004         47.7004
 -20773171.79648 -16166686.67547  20738330.2904   20738331.5804   20738330.905
        49.8004         47.2004
 -15521512.27047 -12078324.37147  21944008.7884   21944012.5294   21944008.464
        46.7004         44.2004
  -7025721.99446  -5462676.65946  23533045.5764   23533053.0944   23533045.750
        41.3004         38.6004
  -5362074.70947  -4158599.07846  22928654.6424   22928661.5164   22928654.434
        43.4004         40.9004
  -1811950.86346  -1384968.35446  24468865.5334   24468868.6474   24468865.724
        38.9004         36.6004
  -4678616.59047  -3631862.42346  23259793.3654   23259800.2304   23259793.770
        42.5004         40.2004
 16 12 15  1 27 30.0000000  0  7G05G02G29G25G06G12G09
 -22096410.11448 -17188537.86947  20531527.0364   20531530.3584   20531526.841
        50.3004         47.7004
 -20746005.83248 -16145518.40647  20743499.6044   20743501.2824   20743500.204
        49.8004         47.2004
 -15594919.17747 -12135524.56547  21930039.9294   21930042.7324   21930039.940
        46.9004         44.0004
  -6957249.40646  -5409321.44146  23546075.5264   23546083.0204   23546075.743
        40.9004         38.5004
  -5273415.56747  -4089514.06146  22945526.0924   22945532.6474   22945525.183
        43.6004         40.9004
  -1705270.39846  -1301840.76546  24489166.4864   24489169.0004   24489166.556
        38.9004         36.6004
  -4622551.97447  -3588175.73446  23270462.5454   23270468.4934   23270462.225
        42.9004         40.2004
 16 12 15  1 28  0.0000000  0  7G05G02G29G25G06G12G09
 -22134925.60448 -17218549.94547  20524197.7534   20524201.2174   20524197.162
        50.2004         47.8004
 -20718494.59548 -16124081.09147  20748735.0334   20748736.1824   20748735.456
        49.8004         47.2004
 -15667918.92247 -12192407.50647  21916148.5764   21916151.6774   21916148.952
        46.9004         44.2004
  -6888345.08346  -5355629.79546  23559188.1934   23559194.2454   23559188.622
        40.9004         38.5004
  -5184572.54347  -4020285.76846  22962432.2054   22962438.8994   22962431.461
        43.6004         40.9004
  -1598491.29746  -1218636.31946  24509485.5174   24509489.7214   24509485.568
        38.7004         36.4004
  -4565970.42947  -3544086.23846  23281229.1934   23281234.5124   23281229.039
        42.7004         40.2004
 16 12 15  1 28 30.0000000  0  7G05G02G29G25G06G12G09
 -22172938.99448 -17248170.77147  20516964.0984   20516967.5184   20516963.948
        50.3004         47.8004
 -20690638.44448 -16102375.01647  20754035.7654   20754037.3254   20754036.434
        49.6004         47.2004
 -15740507.55147 -12248970.08947  21902335.1934   21902338.8044   21902335.036
        46.9004         44.2004
  -6819011.81946  -5301603.91046  23572381.1464   23572388.6364   23572381.029
        40.8004         38.3004
  -5095546.66647  -3950914.98546  22979373.1464   22979379.8784   22979372.387
        43.4004         40.9004
  -1491616.88246  -1135357.60546  24529824.0624   24529826.9374   24529823.242
        38.9004         36.6004
  -4508874.05447  -3499595.59246  23292094.0594   23292100.1704   23292094.027
        42.9004         40.2004
 16 12 15  1 29  0.0000000  0  8G05G02G29G20G25G06G12G09
 -22210449.88348 -17277400.03747  20509825.9384   20509829.2544   20509825.853
        50.3004         47.8004
 -20662437.03748 -16080399.91147  20759402.3154   20759403.7964   20759402.908
        49.8004         47.2004
 -15812683.65247 -12305211.21247  21888600.6914   21888604.0784   21888600.173
        47.0004         44.5004
   -219904.80944
        26.4004
  -6749252.33846  -5247245.90446  23585655.9724   23585662.7384   23585656.188
        40.6004         38.1004
  -5006338.73147  -3881402.35446  22996348.6774   22996355.8624   22996348.312
        43.4004         40.6004
  -1384650.17946  -1052006.97046  24550178.8604   24550182.6924   24550178.606
        38.7004         36.6004
  -4451264.66547  -3454705.18546  23303057.0784   23303063.2664   23303056.945
        42.7004         40.0004
 16 12 15  1 29 30.0000000  0  8G05G02G29G20G25G06G12G09
 -22247457.47948 -17306237.12447  20502783.5584   20502787.1604   20502783.352
        50.3004         47.8004
 -20633890.45648 -16058155.83747  20764834.5324   20764836.1454   20764835.100
        49.8004         47.2004
 -15884444.41447 -12361128.69947  21874945.2864   21874948.0274   21874944.654
        47.0004         44.2004
   -163065.49844   -103255.039 4                  23858369.335
        26.4004         24.800
  -6679069.43546  -5192557.95546  23599011.6824   23599018.5024   23599011.911
        40.6004         38.1004
  -4916949.69647  -3811748.61146  23013358.9924   23013366.1174   23013358.010
        43.2004         40.4004
  -1277593.87146   -968586.52746  24570551.3634   24570555.2524   24570550.891
        38.9004         36.7004
  -4393144.21747  -3409416.56446  23314117.2844   23314122.9924   23314117.137
        42.5004         39.9004
 16 12 15  1 30  0.0000000  0  8G05G02G29G20G25G06G12G09
 -22283961.68348 -17334681.95247  20495837.1274   20495840.4704   20495836.748
        50.3004         47.8004
 -20604998.91648 -16035642.96347  20770332.5664   20770333.8124   20770333.282
        49.6004         47.0004
 -15955787.98947 -12416721.11747  21861368.6554   21861372.1094   21861368.323
        46.9004         44.0004
   -273114.65646   -189007.66246                  23837426.2524   23837421.320
        36.3004         36.0004
  -6608466.13146  -5137542.43646  23612447.1884   23612452.8284   23612447.170
        40.6004         38.1004
  -4827380.69447  -3741954.63146  23030403.4914   23030410.2774   23030403.207
        42.9004         40.2004
  -1170451.43946   -885099.00146  24590939.0514   24590942.8364   24590939.671
        38.7004         36.6004
  -4334514.94747  -3363731.43746  23325274.0944   23325279.2244   23325273.759
        42.2004         39.3004
 16 12 15  1 30 30.0000000  0  8G05G02G29G20G25G06G12G09
 -22319961.84948 -17362734.03247  20488986.4134   20488989.7384   20488986.193
        50.3004         47.8004
 -20575762.05348 -16012861.01247  20775896.2324   20775897.5114   20775896.450
        49.6004         47.0004
 -16026712.27047 -12471986.80047  21847872.4644   21847875.8034   21847871.903
        46.9004         44.2004
   -379465.68246   -271878.60446  23817183.2424   23817187.8244   23817183.065
        38.0004         36.2004
  -6537445.05946  -5082201.36246  23625962.3434   23625968.2994   23625962.149
        40.6004         38.3004
  -4737632.40747  -3672020.95146  23047482.3284   23047488.5154   23047481.067
        42.7004         40.0004
  -1063225.85946   -801546.65846  24611343.4654   24611347.2334   24611343.603
        38.9004         36.6004
  -4275378.54146  -3317651.14846  23336526.5974   23336532.0484   23336526.785
        41.8004         39.0004
 16 12 15  1 31  0.0000000  0  8G05G02G29G20G25G06G12G09
 -22355457.79548 -17390393.21147  20482231.8954   20482235.1084   20482231.436
        50.3004         47.8004
 -20546180.19048 -15989810.22747  20781525.2224   20781526.9584   20781525.744
        49.6004         47.0004
 -16097213.68947 -12526922.98047  21834456.4314   21834459.9724   21834456.568
        47.0004         44.4004
   -485669.59046   -354634.89346  23796973.6194   23796977.7294   23796974.435
        38.3004         36.2004
  -6466009.15146  -5026537.05346  23639556.2134   23639562.6764   23639555.794
        40.8004         38.3004
  -4647705.90447  -3601948.38646  23064594.7014   23064601.1154   23064594.312
        42.3004         39.7004
   -955920.35646   -717932.05446  24631761.8944   24631767.0544   24631761.738
        38.5004         36.0004
  -4215737.22746  -3271177.42846  23347876.2584   23347882.1504   23347875.763
        41.5004         38.8004
 16 12 15  1 31 30.0000000  0  8G05G02G29G20G25G06G12G09
 -22390449.28648 -17417659.30548  20475573.2204   20475576.5054   20475572.776
        50.5004         48.0004
 -20516253.26948 -15966490.56547  20787220.2004   20787221.7804   20787220.910
        49.6004         47.0004
 -16167290.41947 -12581528.23547  21821121.0714   21821124.3454   21821121.054
        47.2004         44.4004
   -591725.02746   -437275.51146  23776792.5424   23776795.8454   23776792.794
        38.2004         36.2004
  -6394161.34746  -4970551.78446  23653227.9784   23653235.0574   23653227.854
        40.8004         38.3004
  -4557602.15247  -3531737.71846  23081740.9894   23081747.5144   23081740.387
        42.3004         39.7004
   -848538.01146   -634257.55846  24652197.3104   24652201.2744   24652196.900
        38.5004         36.4004
  -4155592.98846  -3224311.80846  23359322.6184   23359327.4194   23359322.329
        41.3004         38.8004
 16 12 15  1 32  0.0000000  0  8G05G02G29G20G25G06G12G09
 -22424935.58348 -17444531.75448  20469010.6754   20469013.8324   20469010.418
        50.5004         48.0004
 -20485980.80848 -15942901.65447  20792980.8014   20792982.3624   20792981.419
        49.6004         47.0004
 -16236940.55347 -12635801.08047  21807867.5574   21807870.2694   21807867.650
        47.2004         44.5004
   -697630.36646   -519799.16046  23756637.8314   23756643.8004   23756638.620
        38.2004         36.0004
  -6321904.37346  -4914247.68946  23666977.7114   23666984.3324   23666977.770
        40.6004         38.1004
  -4467321.96247  -3461389.55146  23098920.5124   23098927.0024   23098919.709
        42.3004         39.9004
   -741081.71046   -550525.43246  24672645.8764   24672649.5384   24672645.550
        38.5004         36.4004
  -4094947.75346  -3177055.79946  23370862.0494   23370867.5394   23370861.734
        41.1004         38.5004
 16 12 15  1 32 30.0000000  0  8G05G02G29G20G25G06G12G09
 -22458916.62348 -17471010.48647  20462544.1854   20462547.6124   20462543.816
        50.3004         47.8004
 -20455363.77048 -15919044.24247  20798807.3664   20798808.8594   20798807.852
        49.5004         46.8004
 -16306160.99647 -12689739.09947  21794695.2964   21794698.2924   21794695.116
        47.2004         44.4004
   -803384.26446   -602204.79446  23736514.6294   23736518.9864   23736514.772
        38.2004         36.0004
  -6249241.26646  -4857627.11946  23680805.0954   23680812.6074   23680805.401
        40.6004         37.9004
  -4376866.43547  -3390904.75946  23116133.7564   23116140.9424   23116132.597
        42.5004         39.9004
   -633555.03146   -466738.44246  24693106.8944   24693111.1024   24693107.827
        38.3004         36.0004
  -4033803.75946  -3129411.15346  23382496.8704   23382503.1624   23382496.984
        40.8004         38.1004
 16 12 15  1 33  0.0000000  0  8G05G02G29G20G25G06G12G09
 -22492391.83448 -17497095.07347  20456174.2084   20456177.6774   20456173.746
        50.3004         47.8004
 -20424401.60248 -15894917.89747  20804699.0094   20804700.8404   20804699.389
        49.5004         46.8004
 -16374949.72947 -12743340.71847  21781605.3104   21781608.2284   21781604.919
        47.2004         44.4004
   -908985.35246   -684491.36446  23716419.4724   23716423.7294   23716419.908
        38.3004         36.2004
  -6176174.76746  -4800692.22946  23694709.0494   23694716.5664   23694709.334
        40.4004         37.9004
  -4286236.34747  -3320283.96046  23133380.1664   23133387.5804   23133379.880
        42.7004         40.2004
   -525960.27846   -382898.43446  24713582.9844   24713586.3564   24713582.246
        38.7004         36.7004
  -3972162.92946  -3081379.35446  23394227.8674   23394232.7444   23394227.593
        40.8004         38.5004
 16 12 15  1 33 30.0000000  0  8G05G02G29G20G25G06G12G09
 -22525361.39848 -17522785.65048  20449900.1634   20449903.6774   20449899.728
        50.5004         48.0004
 -20393094.59448 -15870522.85347  20810656.6924   20810658.3524   20810657.176
        49.5004         46.8004
 -16443304.62947 -12796604.28947  21768597.8014   21768600.8524   21768597.794
        47.2004         44.4004
  -1014431.98646   -766657.59546  23696354.0984   23696357.5754   23696353.792
        38.5004         36.4004
  -6102707.95446  -4743445.38646  23708688.9744   23708697.0094   23708689.017
        40.4004         37.9004
  -4195432.80147  -3249527.99746  23150659.7044   23150666.8274   23150659.661
        42.9004         40.4004
   -418301.03346   -299008.16846  24734068.5544   24734072.3914   24734068.624
        38.9004         36.6004
  -3910027.48146  -3032962.15046  23406051.3094   23406056.8864   23406051.115
        40.9004         38.5004
 16 12 15  1 34  0.0000000  0  8G05G02G29G20G25G06G12G09
 -22557824.52148 -17548081.59548  20443722.6974   20443726.2534   20443722.182
        50.5004         48.0004
 -20361442.45048 -15845858.87547  20816680.0734   20816681.4394   20816680.526
        49.5004         47.0004
 -16511222.93747 -12849527.65547  21755673.1044   21755675.9744   21755672.898
        47.2004         44.4004
  -1119722.47846   -848702.15746  23676317.6974   23676321.5824   23676318.207
        39.0004         36.9004
  -6028843.51046  -4685888.71246  23722746.0354   23722752.6734   23722745.968
        40.4004         37.9004
  -4104456.49847  -3178637.41846  23167972.2204   23167979.1104   23167971.558
        42.9004         40.2004
   -310580.14746   -215069.85746  24754566.5894   24754571.8024   24754567.510
        38.5004         36.2004
  -3847399.35146  -2984161.03046  23417969.2824   23417974.2654   23417969.106
        41.1004         38.8004
 16 12 15  1 34 30.0000000  0  8G05G02G29G20G25G06G12G09
 -22589781.10748 -17572982.83548  20437641.6384   20437645.0454   20437641.291
        50.5004         48.2004
 -20329445.49048 -15820926.19547  20822768.7364   20822770.3604   20822769.169
        49.5004         46.8004
 -16578702.79747 -12902109.37347  21742832.2124   21742834.9494   21742832.073
        47.2004         44.4004
  -1224856.03746   -930624.41046  23656311.2054   23656316.2744   23656311.478
        39.0004         36.7004
  -5954584.64446  -4628024.69946  23736877.1224   23736883.2354   23736876.735
        40.3004         37.8004
  -4013308.66347  -3107613.17246  23185316.5474   23185324.2404   23185316.023
        42.9004         40.0004
   -202801.08046   -131086.22846  24775077.8654   24775080.7394   24775077.571
        38.7004         36.6004
  -3784280.84846  -2934977.80946  23429979.7914   23429985.2334   23429980.452
        41.1004         38.8004
 16 12 15  1 35  0.0000000  0  8G05G02G29G20G25G06G12G09
 -22621230.64748 -17597488.97048  20431657.0774   20431660.5374   20431657.007
        50.7004         48.2004
 -20297103.56248 -15795724.71047  20828923.0714   20828924.7214   20828923.512
        49.5004         46.8004
 -16645741.16647 -12954347.07447  21730074.7764   21730078.4674   21730074.881
        47.2004         44.4004
  -1329830.81046  -1012422.94546  23636334.5914   23636338.9624   23636335.762
        38.9004         36.4004
  -5879933.99846  -4569855.39146  23751081.5724   23751088.6154   23751082.397
        40.3004         37.6004
  -3921989.98947  -3036455.81046  23202693.7634   23202701.1344   23202692.672
        42.5004         39.9004
    -94966.52446    -47059.35646  24795598.7764   24795601.1114   24795598.628
        38.5004         36.4004
  -3720673.89546  -2885413.97946  23442084.3084   23442089.7574   23442083.488
        41.5004         39.0004
 16 12 15  1 35 30.0000000  0  8G05G02G29G20G25G06G12G09
 -22652173.30448 -17621600.11948  20425768.7504   20425772.3084   20425768.179
        50.7004         48.0004
 -20264417.01648 -15770254.68547  20835143.3624   20835144.9434   20835143.808
        49.5004         46.8004
 -16712336.42547 -13006239.49047  21717402.6844   21717405.6194   21717402.124
        47.2004         44.4004
  -1434645.30846  -1094096.56046  23616389.3524   23616393.6104   23616390.030
        38.7004         36.2004
  -5804894.67846  -4511383.21946  23765362.1784   23765369.6214   23765361.188
        40.1004         37.6004
  -3830501.52547  -2965166.13946  23220103.5674   23220110.3874   23220102.541
        42.2004         39.5004
     12920.30746     37008.27345  24816127.4484   24816131.5964   24816127.506
        38.0004         35.7004
  -3656580.75546  -2835471.30346  23454281.0824   23454286.6094   23454280.923
        41.6004         39.3004
 16 12 15  1 36  0.0000000  0  8G05G02G29G20G25G06G12G09
 -22682608.69548 -17645316.00948  20419977.2834   20419980.6854   20419976.862
        50.7004         48.2004
 -20231385.73748 -15744516.05147  20841429.0934   20841430.5684   20841429.490
        49.5004         46.8004
 -16778486.02947 -13057784.64747  21704814.7204   21704817.9384   21704814.324
        47.2004         44.5004
  -1539297.97946  -1175644.09246  23596474.9884   23596479.2324   23596475.374
        38.3004         36.2004
  -5729469.66146  -4452610.51746  23779714.8314   23779721.2744   23779715.203
        39.9004         37.4004
  -3738844.24446  -2893744.94046  23237545.0944   23237552.4504   23237544.699
        41.8004         39.0004
    120856.54346    121114.41445  24836666.7214   24836671.3904   24836666.513
        37.3004         35.0004
  -3592003.61746  -2785151.48346  23466569.6184   23466575.3164   23466569.256
        41.8004         39.5004
 16 12 15  1 36 30.0000000  0  7G05G02G29G20G25G06G09
 -22712536.50048 -17668636.38248  20414282.0494   20414285.7294   20414281.694
        50.7004         48.2004
 -20198009.89848 -15718508.92147  20847780.1294   20847781.6764   20847780.925
        49.5004         46.8004
 -16844187.25547 -13108980.42247  21692312.1334   21692315.4054   21692312.118
        47.4004         44.5004
  -1643787.78546  -1257064.70746  23576590.2574   23576595.6104   23576591.100
        38.3004         36.4004
  -5653661.90446  -4393539.57846  23794139.9724   23794147.1364   23794140.137
        39.7004         37.3004
  -3647019.10346  -2822192.93946  23255019.2444   23255026.5824   23255018.265
        41.5004         38.8004
  -3526944.63547  -2734456.20946  23478949.6224   23478955.5794   23478949.460
        42.0004         39.5004
 16 12 15  1 37  0.0000000  0  7G05G02G29G20G25G06G09
 -22741956.38148 -17691560.97048  20408683.5254   20408687.3694   20408683.351
        50.7004         48.4004
 -20164289.42748 -15692233.24947  20854196.9974   20854198.4634   20854197.611
        49.5004         46.8004
 -16909438.09047 -13159825.24047  21679895.5254   21679898.6174   21679895.200
        47.4004         44.7004
  -1748113.28046  -1338357.26746  23556739.3634   23556743.2404   23556739.585
        38.5004         36.2004
  -5577474.20846  -4334172.57746  23808638.1894   23808646.1484   23808638.152
        39.7004         37.4004
  -3555026.87246  -2750510.73146  23272524.9154   23272531.2804   23272524.266
        41.3004         38.8004
  -3461405.84947  -2683387.06146  23491421.1494   23491426.8034   23491421.425
        42.0004         39.5004
 16 12 15  1 37 30.0000000  0  7G05G02G29G20G25G06G09
 -22770868.38048 -17714089.80148  20403182.0484   20403185.4114   20403181.692
        50.8004         48.4004
 -20130224.43448 -15665689.11347  20860679.4554   20860680.8634   20860680.246
        49.5004         46.8004
 -16974236.12147 -13210317.22547  21667564.7234   21667567.9454   21667564.760
        47.4004         44.5004
  -1852272.75246  -1419520.46746  23536917.1184   23536921.2374   23536918.249
        38.7004         36.6004
  -5500909.79046  -4274512.02646  23823208.9504   23823215.3764   23823208.402
        39.7004         37.4004
  -3462868.72546  -2678699.20446  23290061.8544   23290068.3224   23290060.865
        41.3004         38.8004
  -3395389.62247  -2631945.87546  23503983.4344   23503989.1864   23503983.414
        42.0004         39.5004
 16 12 15  1 38  0.0000000  0  7G05G02G29G20G25G06G09
 -22799272.31648 -17736222.74148  20397776.7744   20397780.2304   20397776.373
        50.8004         48.4004
 -20095814.93548 -15638876.52847  20867227.5144   20867229.1824   20867227.920
        49.5004         46.8004
 -17038579.26947 -13260454.75047  21655320.9184   21655323.7834   21655320.151
        47.4004         44.5004
  -1956264.82046  -1500553.23446  23517128.6324   23517133.3494   23517128.961
        39.0004         36.7004
  -5423971.45146  -4214560.11946  23837849.2634   23837855.3614   23837849.522
        39.7004         37.3004
  -3370545.42546  -2606758.99846  23307630.2724   23307636.8834   23307630.020
        41.3004         38.6004
  -3328898.05947  -2580134.29746  23516636.9634   23516642.5294   23516636.431
        42.0004         39.5004
 16 12 15  1 38 30.0000000  0  7G05G02G29G20G25G06G09
 -22827167.76848 -17757959.46448  20392468.5654   20392471.9334   20392468.213
        50.8004         48.4004
 -20061061.19548 -15611795.70847  20873840.8004   20873842.5084   20873841.387
        49.5004         46.8004
 -17102465.05747 -13310235.89947  21643163.5694   21643167.0134   21643163.282
        47.5004         44.7004
  -2060087.84446  -1581454.27546  23497371.9054   23497375.9844   23497372.742
        39.4004         37.1004
  -5346662.27146  -4154319.23546  23852560.3934   23852567.3454   23852560.638
        39.6004         37.3004
  -3278057.94846  -2534690.86946  23325230.1234   23325237.3844   23325229.379
        41.3004         38.8004
  -3261933.42047  -2527954.10846  23529380.1414   23529385.6574   23529379.898
        42.2004         39.5004
 16 12 15  1 39  0.0000000  0  7G05G02G29G20G25G06G09
 -22854554.97448 -17779300.14948  20387257.1114   20387260.3364   20387256.795
        50.8004         48.5004
 -20025963.05348 -15584446.52647  20880519.7754   20880521.2084   20880520.079
        49.3004         46.8004
 -17165891.38247 -13359659.02547  21631093.8834   21631097.2094   21631093.518
        47.4004         44.7004
  -2163740.89546  -1662222.86646  23477647.9944   23477651.4894   23477648.451
        39.6004         37.3004
  -5268985.26946  -4093791.74446  23867342.3784   23867349.5354   23867342.567
        39.6004         37.3004
  -3185407.32546  -2462495.62946  23342861.5204   23342867.5834   23342861.333
        41.1004         38.6004
  -3194497.95047  -2475407.01446  23542211.6354   23542217.6374   23542211.329
        42.0004         39.3004
 16 12 15  1 39 30.0000000  0  7G05G02G29G20G25G06G09
 -22881433.57148 -17800244.51548  20382142.1344   20382145.3124   20382141.813
        50.8004         48.5004
 -19990520.72448 -15556829.13647  20887264.1014   20887266.0224   20887264.798
        49.3004         46.6004
 -17228856.99447 -13408723.14947  21619111.7534   21619115.1204   21619111.605
        47.4004         44.7004
  -2267222.43746  -1742857.81746  23457955.2284   23457960.4764   23457956.389
        39.6004         37.1004
  -5190943.36646  -4032979.91146  23882193.2514   23882200.4244   23882193.357
        39.6004         37.4004
  -3092594.37546  -2390173.88046  23360523.1254   23360530.6774   23360521.254
        41.3004         38.8004
  -3126593.81446  -2422494.73846  23555133.7644   23555139.2994   23555133.379
        41.8004         39.2004
 16 12 15  1 40  0.0000000  0  7G05G02G29G20G25G06G09
 -22907803.49948 -17820792.51748  20377124.0724   20377127.3884   20377123.842
        50.8004         48.5004
 -19954734.54548 -15528943.82647  20894074.0904   20894075.4104   20894074.282
        49.3004         46.6004
 -17291357.67247 -13457424.99147  21607218.7284   21607221.8764   21607218.159
        47.5004         44.7004
  -2370530.81746  -1823357.83546  23438296.5624   23438301.6754   23438297.213
        39.4004         36.9004
  -5112539.67446  -3971886.17146  23897112.8594   23897120.0614   23897112.491
        39.4004         37.1004
  -2999620.16646  -2317726.48246  23378215.0894   23378223.0754   23378214.417
        41.3004         38.8004
  -3058223.37346  -2369219.09446  23568144.3124   23568150.1084   23568144.820
        41.6004         39.2004
 16 12 15  1 40 30.0000000  0  7G05G02G29G20G25G06G09
 -22933664.56848 -17840944.00348  20372202.8854   20372206.1934   20372202.744
        50.8004         48.5004
 -19918604.25148 -15500790.36547  20900949.2494   20900950.8844   20900949.879
        49.3004         46.5004
 -17353392.16247 -13505763.56347  21595414.0474   21595416.7574   21595413.811
        47.4004         44.7004
  -2473664.53446  -1903721.76446  23418671.2604   23418674.8654   23418671.479
        39.0004         36.7004
  -5033777.06046  -3910512.75546  23912101.2134   23912107.9244   23912101.242
        39.4004         37.1004
  -2906485.49046  -2245154.06046  23395938.4544   23395945.6834   23395937.694
        41.3004         38.8004
  -2989388.77446  -2315581.78346  23581243.7774   23581249.0934   23581243.533
        41.6004         39.0004
 16 12 15  1 41  0.0000000  0  7G05G02G29G20G25G06G09
 -22959016.50248 -17860698.76748  20367378.5004   20367382.0524   20367378.263
        50.8004         48.5004
 -19882129.99448 -15472368.88947  20907890.2684   20907891.7264   20907891.009
        49.1004         46.5004
 -17414957.88147 -13553736.86647  21583698.5434   21583701.5524   21583698.186
        47.4004         44.9004
  -2576622.24246  -1983948.56146  23399078.9884   23399082.4444   23399079.385
        39.2004         36.9004
  -4954658.74946  -3848862.17646  23927157.1604   23927163.2754   23927156.793
        39.2004         36.7004
  -2813191.38946  -2172457.40246  23413691.4914   23413699.7184   23413690.816
        41.5004         39.0004
  -2920092.37046  -2261584.61346  23594430.2584   23594435.6774   23594430.195
        41.5004         38.8004
 16 12 15  1 41 30.0000000  0  7G05G02G29G20G25G06G09
 -22983859.50948 -17880056.95648  20362651.1844   20362654.6374   20362650.821
        50.8004         48.5004
 -19845312.03048 -15443679.58247  20914896.2634   20914898.1064   20914896.899
        49.1004         46.5004
 -17476052.76647 -13601343.28247  21572072.6714   21572075.1904   21572072.379
        47.5004         44.5004
  -2679402.83346  -2064037.34446  23379520.5604   23379524.3444   23379521.012
        39.4004         37.3004
  -4875187.71446  -3786936.73746  23942278.7324   23942286.6324   23942278.870
        39.2004         36.7004
  -2719738.84246  -2099637.28546  23431475.2214   23431482.6764   23431474.768
        41.3004         38.8004
  -2850336.46046  -2207229.38946  23607703.1564   23607710.3334   23607703.497
        41.1004         38.3004
 16 12 15  1 42  0.0000000  0  7G05G02G29G20G25G06G09
 -23008193.43548 -17899018.46648  20358020.3954   20358023.9574   20358020.023
        50.8004         48.5004
 -19808150.32348 -15414722.44347  20921968.1274   20921969.6744   20921968.481
        49.1004         46.5004
 -17536674.80747 -13648581.25747  21560536.2604   21560539.0864   21560535.924
        47.4004         44.7004
  -2782004.87946  -2143986.99746  23359995.8144   23360000.1564   23359996.100
        39.7004         37.4004
  -4795366.92846  -3724738.76946  23957468.9404   23957475.6594   23957469.353
        39.2004         36.9004
  -2626128.69246  -2026694.37246  23449288.8694   23449295.8464   23449288.779
        41.1004         38.5004
  -2780123.28046  -2152517.85446  23621064.9234   23621071.4034   23621064.368
        40.8004         38.1004
 16 12 15  1 42 30.0000000  0  7G05G02G29G20G25G06G09
 -23032018.35048 -17917583.34048  20353486.7544   20353490.3844   20353486.426
        50.8004         48.7004
 -19770645.17448 -15385497.67447  20929105.2294   20929106.8564   20929105.585
        49.1004         46.5004
 -17596821.74147 -13695449.01347  21549091.0424   21549094.0564   21549090.483
        47.5004         44.9004
  -2884426.63946  -2223796.16346  23340504.7694   23340510.1634   23340505.884
        39.7004         37.4004
  -4715199.56746  -3662270.72746  23972724.3374   23972731.4514   23972724.831
        39.0004         36.7004
  -2532361.98646  -1953629.45646  23467132.4174   23467139.2624   23467130.726
        40.9004         38.5004
  -2709455.26346  -2097451.88446  23634513.1084   23634517.9814   23634512.720
        40.6004         37.9004
 16 12 15  1 43  0.0000000  0  7G05G02G29G20G25G06G09
 -23055334.19048 -17935751.53148  20349049.8444   20349053.4474   20349049.676
        51.0004         48.5004
 -19732796.73548 -15356005.41047  20936307.2624   20936309.0724   20936307.948
        49.1004         46.5004
 -17656491.33947 -13741944.81347  21537735.8424   21537739.1304   21537735.750
        47.7004         45.1004
  -2986666.46446  -2303463.54046  23321050.3554   23321055.2904   23321050.620
        39.9004         37.6004
  -4634688.55646  -3599534.90946  23988043.6514   23988051.4544   23988044.352
        38.7004         36.4004
  -2438439.57846  -1880443.19546  23485004.5574   23485011.7324   23485004.367
        40.8004         38.3004
  -2638334.54446  -2042033.14746  23648046.6414   23648051.7084   23648047.295
        40.3004         37.8004
 16 12 15  1 43 30.0000000  0  7G05G02G29G20G25G06G09
 -23078140.99648 -17953523.07048  20344710.1224   20344713.2714   20344709.546
        51.0004         48.5004
 -19694604.93648 -15326245.58347  20943574.9764   20943576.7124   20943575.419
        48.9004         46.3004
 -17715681.19847 -13788066.78947  21526472.6354   21526475.8594   21526472.466
        47.7004         45.1004
  -3088723.34746  -2382988.37846  23301629.6424   23301633.3984   23301629.891
        40.1004         37.8004
  -4553837.02046  -3536533.73846  24003430.3314   24003437.7544   24003431.088
        38.7004         36.6004
  -2344362.41946  -1807136.35146  23502907.3934   23502913.8184   23502906.088
        40.6004         38.1004
  -2566763.57146  -1986263.55746  23661666.6074   23661672.9494   23661666.108
        40.3004         37.8004
 16 12 15  1 44  0.0000000  0  7G05G02G29G20G25G06G09
 -23100438.57348 -17970897.80648  20340466.9314   20340470.3144   20340466.690
        51.0004         48.5004
 -19656070.15348 -15296218.50347  20950907.8044   20950909.7834   20950907.858
        48.9004         46.3004
 -17774389.56447 -13833813.57847  21515301.0074   21515303.9904   21515300.654
        47.7004         45.1004
  -3190595.99746  -2462369.68146  23282243.7274   23282247.5944   23282243.127
        40.1004         37.8004
  -4472648.12546  -3473269.69946  24018880.3424   24018887.7844   24018880.729
        38.9004         36.7004
  -2250131.57246  -1733709.74646  23520838.4854   23520845.7454   23520838.469
        40.6004         38.1004
  -2494744.70946  -1930144.98446  23675369.9994   23675378.6314   23675370.117
        40.3004         37.8004
 16 12 15  1 44 30.0000000  0  7G05G02G29G20G25G06G09
 -23122226.85948 -17987875.69648  20336320.6384   20336323.9764   20336320.253
        51.0004         48.5004
 -19617192.19748 -15265924.01047  20958306.0544   20958307.9964   20958306.695
        48.9004         46.3004
 -17832613.76347 -13879183.08947  21504221.1904   21504224.2314   21504221.108
        47.7004         45.1004
  -3292283.01246  -2541606.32646  23262893.0454   23262897.6144   23262894.176
        40.1004         37.8004
  -4391124.81346  -3409745.06146  24034393.9594   24034400.8374   24034393.380
        39.0004         36.9004
  -2155747.80446  -1660163.99246  23538799.2774   23538806.6264   23538798.822
        40.6004         38.1004
  -2422280.22046  -1873679.17746  23689160.1804   23689167.0614   23689159.611
        40.1004         37.6004
 16 12 15  1 45  0.0000000  0  7G05G02G29G20G25G06G09
 -23143506.09948 -18004456.92848  20332271.3584   20332274.7084   20332270.858
        51.0004         48.5004
 -19577971.51648 -15235362.46647  20965769.7294   20965771.6244   20965770.324
        48.9004         46.3004
 -17890351.61247 -13924173.63547  21493234.1454   21493237.1844   21493234.023
        47.7004         44.9004
  -3393782.73146  -2620697.01846  23243578.8334   23243582.8594   23243578.745
        40.3004         37.8004
  -4309270.18046  -3345962.25946  24049970.8154   24049976.7384   24049970.207
        39.2004         36.9004
  -2061212.15846  -1586499.89546  23556788.8774   23556796.4294   23556787.332
        40.6004         38.1004
  -2349372.51246  -1816867.99946  23703034.7954   23703040.3354   23703034.508
        39.7004         37.3004
 16 12 15  1 45 30.0000000  0  7G05G02G29G20G25G06G09
 -23164276.52748 -18020641.68048  20328318.9484   20328322.1404   20328318.602
        51.0004         48.7004
 -19538408.02848 -15204533.79547  20973298.6794   20973300.3114   20973298.828
        48.9004         46.3004
 -17947601.63647 -13968784.05347  21482339.8584   21482342.9194   21482339.695
        47.9004         45.1004
  -3495093.62046  -2699640.56746  23224299.0754   23224303.7254   23224299.933
        40.1004         37.8004
  -4227087.34646  -3281923.73146  24065610.1734   24065616.2534   24065609.913
        39.2004         36.9004
  -1966525.58146  -1512718.19246  23574807.9244   23574814.1254   23574807.192
        40.4004         37.9004
  -2276023.93546  -1759713.26946  23716992.3154   23716998.0844   23716992.873
        39.6004         37.3004
 16 12 15  1 46  0.0000000  0  7G05G02G29G20G25G06G09
 -23184537.81348 -18036429.70348  20324463.2604   20324466.7394   20324462.838
        51.2004         48.7004
 -19498501.90348 -15173438.14247  20980892.4824   20980894.1324   20980892.731
        48.9004         46.3004
 -18004360.75547 -14013011.94047  21471538.8624   21471542.0364   21471538.719
        47.9004         45.2004
  -3596214.32746  -2778435.93446  23205055.9194   23205061.6594   23205056.952
        40.1004         37.6004
  -4144579.44846  -3217631.90146  24081310.4764   24081316.6224   24081309.624
        39.4004         37.1004
  -1871689.01046  -1438819.62346  23592854.0344   23592860.8754   23592854.017
        40.4004         37.9004
  -2202236.93546  -1702216.90446  23731032.1004   23731039.6834   23731032.094
        39.4004         36.9004
 16 12 15  1 46 30.0000000  0  7G05G02G29G20G25G06G09
 -23204290.09048 -18051821.09248  20320704.5974   20320708.0034   20320704.330
        51.0004         48.7004
 -19458253.43348 -15142075.72647  20988551.6644   20988553.0624   20988552.079
        48.9004         46.3004
 -18060627.67247 -14056856.29947  21460831.4804   21460834.4174   21460831.357
        47.9004         45.1004
  -3697143.77746  -2857082.27946  23185850.2184   23185854.9944   23185850.760
        40.1004         37.8004
  -4061749.53446  -3153089.15046  24097071.6214   24097079.3214   24097072.385
        39.2004         36.9004
  -1776703.38446  -1364804.90746  23610928.5844   23610936.2424   23610927.480
        40.3004         37.9004
  -2128013.76846  -1644380.71646  23745157.1594   23745164.8154   23745156.757
        39.2004         36.9004
 16 12 15  1 47  0.0000000  0  7G05G02G29G20G25G06G09
 -23223533.56948 -18066816.01548  20317042.6364   20317046.0754   20317042.357
        51.0004         48.7004
 -19417662.65348 -15110446.56947  20996275.4504   20996277.3044   20996276.110
        48.9004         46.1004
 -18116399.59247 -14100314.94447  21450218.3654   21450221.7494   21450218.461
        47.7004         45.1004
  -3797880.44846  -2935578.40346  23166680.8914   23166685.0724   23166681.354
        40.1004         37.9004
  -3978600.67946  -3088297.88346  24112894.1844   24112902.2954   24112894.614
        38.9004         36.4004
  -1681569.60446  -1290674.74446  23629032.7674   23629039.9694   23629031.562
        40.6004         38.1004
  -2053356.95246  -1586206.59746  23759364.2764   23759371.0324   23759363.572
        39.0004         36.7004
 16 12 15  1 47 30.0000000  0  7G05G02G29G20G25G06G09
 -23242268.30448 -18081414.51848  20313477.4664   20313480.8384   20313477.112
        51.0004         48.7004
 -19376730.00848 -15078551.02747  21004064.7464   21004066.6014   21004065.017
        48.9004         46.3004
 -18171674.58747 -14143386.38047  21439699.5474   21439703.2894   21439699.381
        47.7004         44.9004
  -3898423.18846  -3013923.39746  23147548.2084   23147552.9494   23147548.746
        40.4004         38.1004
  -3895136.18046  -3023260.64846  24128777.1814   24128784.8504   24128776.977
        38.9004         36.6004
  -1586288.82446  -1216430.03946  23647164.4414   23647171.6814   23647164.545
        40.8004         38.3004
  -1978268.93346  -1527696.47546  23773652.3324   23773659.3684   23773652.432
        38.7004         36.6004
 16 12 15  1 48  0.0000000  0  7G05G02G29G20G25G06G09
 -23260494.22848 -18095616.54448  20310009.2014   20310012.5884   20310008.770
        51.0004         48.7004
 -19335455.53348 -15046389.12647  21011919.0784   21011920.9734   21011919.941
        48.9004         46.3004
 -18226450.77947 -14186069.13447  21429276.4474   21429279.7124   21429276.184
        47.9004         45.2004
  -3998770.06346  -3092115.77346  23128452.8614   23128457.4284   23128453.467
        40.8004         38.3004
  -3811358.94946  -2957979.72646  24144719.1224   24144726.7834   24144718.761
        38.9004         36.6004
  -1490861.79746  -1142071.35646  23665323.6154   23665330.3414   23665323.486
        40.6004         37.9004
  -1902752.07546  -1468852.20446  23788023.6374   23788029.0124   23788023.746
        38.7004         36.4004
 16 12 15  1 48 30.0000000  0  7G05G02G29G20G25G06G09
 -23278211.70548 -18109422.37648  20306637.9414   20306641.0634   20306637.474
        51.0004         48.7004
 -19293839.27048 -15013960.89147  21019838.4634   21019840.0004   21019838.942
        48.9004         46.1004
 -18280726.19747 -14228361.68147  21418947.9434   21418951.2184   21418947.790
        47.9004         45.1004
  -4098919.87346  -3170154.57646  23109394.9964   23109399.4054   23109395.590
        40.9004         38.6004
  -3727272.12246  -2892457.56846  24160721.5484   24160727.8934   24160721.622
        39.0004         36.9004
  -1395289.40246  -1067599.40046  23683509.8444   23683517.0884   23683509.132
        39.9004         37.4004
  -1826808.69846  -1409675.57346  23802474.6924   23802481.0824   23802474.056
        38.5004         36.4004
 16 12 15  1 49  0.0000000  0  7G05G02G29G20G25G06G09
 -23295420.86248 -18122832.11648  20303362.7624   20303366.3654   20303362.306
        51.2004         48.7004
 -19251881.53648 -14981266.58047  21027822.7434   21027824.4804   21027823.155
        48.8004         46.1004
 -18334498.83447 -14270262.44547  21408715.1584   21408718.7564   21408715.108
        47.9004         45.2004
  -4198871.21446  -3248038.74046  23090375.2744   23090379.6904   23090375.966
        41.1004         38.8004
  -3642878.89846  -2826696.66346  24176780.6564   24176787.3774   24176781.748
        39.0004         36.7004
  -1299572.80146   -993015.08746  23701723.3134   23701730.8294   23701722.217
        39.6004         37.1004
  -1750441.37846  -1350168.58546  23817006.8714   23817013.4154   23817006.768
        38.7004         36.6004
 16 12 15  1 49 30.0000000  0  7G05G02G29G20G25G06G09
 -23312121.61548 -18135845.69348  20300184.9684   20300188.3304   20300184.687
        51.2004         48.9004
 -19209582.39948 -14948306.24047  21035872.2384   21035873.5494   21035873.108
        48.8004         46.1004
 -18387765.83147 -14311769.20847  21398579.0594   21398582.2574   21398578.924
        47.9004         45.2004
  -4298622.56246  -3325767.06846  23071392.7854   23071397.7594   23071393.381
        41.1004         38.6004
  -3558182.36246  -2760699.38646  24192897.3404   24192904.8474   24192897.321
        39.0004         36.9004
  -1203712.74146   -918319.00046  23719964.8714   23719972.6184   23719962.929
        39.2004         36.9004
  -1673652.47246  -1290333.10546  23831619.2394   23831626.2334   23831619.044
        38.7004         36.4004
 16 12 15  1 50  0.0000000  0  7G05G02G29G20G25G06G09
 -23328314.41148 -18148463.47048  20297103.5154   20297107.0944   20297103.361
        51.2004         48.9004
 -19166942.10648 -14915080.06247  21043986.4594   21043988.0504   21043986.897
        48.8004         46.1004
 -18440525.87747 -14352880.94547  21388539.3624   21388542.4844   21388539.144
        47.9004         45.2004
  -4398172.98146  -3403338.83446  23052449.4484   23052453.5234   23052450.179
        41.1004         38.5004
  -3473185.70046  -2694468.24746  24209070.9474   24209078.7014   24209072.389
        39.0004         36.7004
  -1107710.33946   -843511.98446  23738234.0654   23738241.9884   23738233.631
        39.4004         37.1004
  -1596444.54146  -1230171.11246  23846312.3364   23846318.0484   23846312.679
        38.9004         36.9004
 16 12 15  1 50 30.0000000  0  7G05G02G29G20G25G06G09
 -23343999.30148 -18160685.46648  20294118.6884   20294122.3114   20294118.434
        51.2004         49.1004
 -19123960.99148 -14881588.30547  21052165.4414   21052167.3024   21052165.862
        48.8004         46.1004
 -18492776.39547 -14393595.64947  21378596.3654   21378599.5764   21378596.057
        47.9004         45.2004
  -4497520.84946  -3480752.74746  23033544.1394   23033548.0904   23033544.938
        41.1004         38.6004
  -3387891.94346  -2628005.61146  24225303.2364   24225309.4484   24225303.002
        38.7004         36.2004
  -1011566.41646   -768594.70846  23756530.1574   23756537.7664   23756529.492
        39.6004         37.4004
  -1518819.90246  -1169684.40246  23861084.1454   23861089.3964   23861084.252
        38.9004         36.7004
 16 12 15  1 51  0.0000000  0  7G05G02G29G20G25G06G09
 -23359176.70848 -18172512.01948  20291230.8954   20291234.0144   20291230.416
        51.2004         49.1004
 -19080639.13148 -14847831.03747  21060409.0644   21060411.0204   21060409.383
        48.8004         46.1004
 -18544515.71448 -14433912.01747  21368750.7584   21368753.9574   21368750.268
        48.1004         45.6004
  -4596664.92246  -3558007.89046  23014676.9794   23014681.5464   23014677.822
        40.9004         38.6004
  -3302304.37046  -2561314.01546  24241589.4694   24241596.0794   24241589.848
        38.3004         36.0004
   -915282.04346   -693567.96846  23774852.1254   23774860.4044   23774852.063
        39.7004         37.4004
  -1440781.17746  -1108875.03646  23875933.0854   23875939.3944   23875931.994
        38.7004         36.2004
 16 12 15  1 51 30.0000000  0  7G05G02G29G20G25G06G09
 -23373846.72048 -18183943.19448  20288438.8574   20288442.4624   20288438.550
        51.2004         49.1004
 -19036976.79048 -14813808.45947  21068717.5704   21068719.7054   21068718.107
        48.6004         45.9004
 -18595742.20548 -14473828.77447  21359002.7194   21359006.0684   21359002.167
        48.1004         45.4004
  -4695603.39046  -3635102.81946  22995849.9224   22995854.2274   22995850.241
        41.1004         38.6004
  -3216426.06146  -2494395.85446  24257932.3754   24257938.8264   24257932.140
        38.2004         36.2004
   -818858.12846   -618432.48546  23793201.5914   23793209.6704   23793200.072
        39.9004         37.8004
  -1362330.67446  -1047744.80446  23890863.0884   23890867.9384   23890862.593
        38.7004         36.6004
 16 12 15  1 52  0.0000000  0  7G05G02G29G20G25G06G09
 -23388009.50048 -18194979.13848  20285743.8664   20285747.5434   20285743.238
        51.2004         49.1004
 -18992974.12848 -14779520.69947  21077091.2204   21077093.4374   21077092.052
        48.6004         45.9004
 -18646453.39448 -14513344.00047  21349352.6934   21349356.2534   21349352.359
        48.1004         45.4004
  -4794335.30746  -3712036.79246  22977061.3944   22977065.3464   22977062.485
        41.1004         38.6004
  -3130260.17046  -2427253.62946  24274328.0854   24274334.5994   24274327.968
        38.3004         36.2004
   -722295.63346   -543189.02846  23811576.7114   23811583.8284   23811576.728
        40.1004         37.8004
  -1283471.09346   -986295.79346  23905869.6614   23905874.3314   23905868.814
        38.9004         36.9004
 16 12 15  1 52 30.0000000  0  8G05G02G29G13G20G25G06G09
 -23401664.95448 -18205619.75948  20283145.5084   20283148.8024   20283145.335
        51.4004         49.1004
 -18948630.95648 -14744967.59947  21085529.5934   21085531.3564   21085530.078
        48.6004         45.8004
 -18696646.85348 -14552455.79447  21339801.1304   21339804.4154   21339800.825
        48.1004         45.4004
   2592963.49444
        26.4004
  -4892859.08046  -3788808.58046  22958313.2894   22958318.0264   22958313.888
        41.1004         38.6004
  -3043809.73246  -2359889.69246  24290780.4284   24290786.7864   24290780.047
        38.3004         36.2004
   -625595.40046   -467838.24546  23829978.3314   23829985.6454   23829977.758
        40.1004         37.8004
  -1204204.66546   -924529.75846  23920952.9314   23920959.0384   23920952.914
        38.9004         36.6004
 16 12 15  1 53  0.0000000  0  8G05G02G29G13G20G25G06G09
 -23414813.63848 -18215865.49348  20280643.3734   20280646.7844   20280643.183
        51.4004         49.1004
 -18903948.34548 -14710150.00247  21094032.3484   21094034.2364   21094033.047
        48.4004         45.8004
 -18746320.72648 -14591162.72147  21330348.5694   21330352.1694   21330348.493
        48.1004         45.4004
   2592963.49444
        26.4004
  -4991173.46546  -3865417.21046  22939605.5654   22939609.0364   22939605.253
        41.1004         38.8004
  -2957078.12146  -2292306.66546  24307284.0784   24307291.2194   24307284.338
        38.2004         36.0004
   -528758.46946   -392380.96346  23848406.0404   23848412.4864   23848406.241
        39.7004         37.1004
  -1124534.10046   -862448.83446  23936113.7324   23936119.2594   23936113.017
        38.7004         36.6004
 16 12 15  1 53 30.0000000  0  8G05G02G29G13G20G25G06G09
 -23427455.80848 -18225716.54448  20278237.6414   20278240.9984   20278237.063
        51.4004         49.1004
 -18858926.12848 -14675067.77847  21102599.6454   21102601.6344   21102600.429
        48.4004         45.8004
 -18795473.85448 -14629463.87047  21320995.1334   21320997.9944   21320994.837
        48.1004         45.4004
   -257068.51145   -184817.50345                  24232174.1634   24232169.899
        33.8004         34.8004
  -5089277.08946  -3941861.61746  22920936.5054   22920940.8074   22920937.658
        41.5004         39.0004
  -2870068.43946  -2224506.96446  24323842.8374   24323849.8984   24323842.725
        38.5004         36.4004
   -431785.89146   -316817.96346  23866859.7504   23866866.4324   23866860.016
        39.4004         37.1004
  -1044461.87846   -800054.92246  23951351.7454   23951357.5704   23951351.684
        39.2004         36.9004
 16 12 15  1 54  0.0000000  0  8G05G02G29G13G20G25G06G09
 -23439592.01948 -18235173.33948  20275928.0954   20275931.5344   20275927.738
        51.4004         49.1004
 -18813564.55048 -14639721.12047  21111231.7984   21111233.5674   21111232.173
        48.4004         45.8004
 -18844103.82948 -14667357.36547  21311741.1374   21311744.1254   21311740.633
        48.1004         45.2004
   -371218.16846   -273765.19245  24210449.8824   24210455.1534   24210449.811
        36.4004         34.8004
  -5187168.36646  -4018140.54146  22902308.5034   22902312.6734   22902308.926
        41.6004         39.2004
  -2782783.69946  -2156492.93446  24340450.5974   24340459.5664   24340450.588
        38.3004         36.2004
   -334678.47746   -241149.89546  23885338.1984   23885345.5644   23885337.858
        39.6004         37.4004
   -963990.42646   -737349.91546  23966664.6294   23966669.5934   23966665.388
        39.2004         36.9004
 16 12 15  1 54 30.0000000  0  8G05G02G29G13G20G25G06G09
 -23451222.16748 -18244235.79748  20273715.1024   20273718.4674   20273714.793
        51.4004         49.1004
 -18767863.85048 -14604110.21047  21119928.8294   21119930.4424   21119929.172
        48.4004         45.8004
 -18892208.46348 -14704841.50847  21302587.3464   21302590.0274   21302586.820
        48.1004         45.2004
   -485269.43646   -362636.28145  24188747.7414   24188749.2524   24188747.168
        36.4004         34.6004
  -5284846.23446  -4094253.16946  22883720.7734   22883725.3614   22883721.176
        41.8004         39.3004
  -2695227.25346  -2088267.17846  24357112.2134   24357119.5584   24357111.973
        38.3004         36.2004
   -237437.27446   -165377.56646  23903842.2794   23903849.3184   23903840.097
        39.4004         36.9004
   -883122.32346   -674335.82546  23982051.4464   23982059.1384   23982051.576
        38.9004         36.4004
 16 12 15  1 55  0.0000000  0  8G05G02G29G13G20G25G06G09
 -23462346.71348 -18252904.28248  20271598.2184   20271601.7574   20271598.022
        51.4004         49.1004
 -18721824.16248 -14568235.15047  21128689.6694   21128691.4754   21128690.148
        48.4004         45.6004
 -18939786.15148 -14741915.04347  21293533.2634   21293536.6014   21293533.289
        48.1004         45.2004
   -599219.15745   -451428.25045  24167060.8344   24167065.7624   24167063.039
        35.9004         34.1004
  -5382309.23147  -4170198.34646  22865174.1254   22865178.6674   22865175.095
        42.0004         39.5004
  -2607402.13246  -2019832.05746  24373825.2044   24373833.2884   24373825.185
        38.7004         36.6004
   -140063.10246    -89501.65746  23922372.2984   23922379.7474   23922371.787
        39.2004         36.9004
   -801859.98346   -611014.57346  23997516.2414   23997522.2704   23997516.008
        38.9004         36.6004
 16 12 15  1 55 30.0000000  0  8G05G02G29G13G20G25G06G09
 -23472966.17548 -18261179.19848  20269577.5094   20269580.7854   20269577.208
        51.4004         49.1004
 -18675445.88348 -14532096.26047  21137515.2514   21137516.9514   21137515.807
        48.2004         45.6004
 -18986835.01347 -14778576.50147  21284580.5704   21284583.4384   21284579.936
        47.9004         45.4004
   -713064.54545   -540138.89345  24145398.3664   24145402.2914   24145398.195
        35.7004         34.3004
  -5479555.90947  -4245974.95946  22846668.4914   22846673.5854   22846669.391
        42.0004         39.3004
  -2519311.59646  -1951190.08746  24390588.5654   24390595.8894   24390588.622
        38.9004         36.6004
    -42557.05346    -13523.00346  23940927.3334   23940934.6904   23940927.012
        39.4004         37.1004
   -720206.06446   -547388.17646  24013055.4044   24013060.9194   24013054.743
        38.7004         36.4004
 16 12 15  1 56  0.0000000  0  8G05G02G29G13G20G25G06G09
 -23483080.87048 -18269060.78748  20267652.5114   20267655.9174   20267652.011
        51.4004         49.2004
 -18628729.25748 -14495693.72747  21146405.1724   21146406.8674   21146406.015
        48.4004         45.8004
 -19033353.12848 -14814824.39747  21275728.1414   21275731.4594   21275728.100
        48.1004         45.4004
   -826802.82746   -628766.11145  24123754.6734   24123758.5704   24123754.492
        36.4004         35.0004
  -5576584.91147  -4321581.96246  22828205.0564   22828209.9054   22828205.495
        42.0004         39.5004
  -2430958.80446  -1882343.79946  24407401.2824   24407408.9444   24407401.759
        38.9004         36.7004
     55079.88946     62557.69246  23959506.5664   23959514.3904   23959505.206
        39.6004         37.3004
   -638163.10246   -483458.61746  24028666.0734   24028672.4764   24028666.163
        38.5004         36.2004
 16 12 15  1 56 30.0000000  0  8G05G02G29G13G20G25G06G09
 -23492690.91848 -18276549.14448  20265823.6704   20265827.2484   20265823.299
        51.5004         49.2004
 -18581674.43648 -14459027.65747  21155359.3274   21155361.0684   21155359.819
        48.4004         45.8004
 -19079338.24348 -14850656.96547  21266977.3404   21266980.7114   21266977.096
        48.1004         45.4004
   -940431.13546   -717307.63645  24102132.7134   24102136.6764   24102131.779
        37.1004         35.2004
  -5673394.96647  -4397018.34846  22809782.9864   22809787.2124   22809782.786
        42.2004         39.7004
  -2342346.85346  -1813295.54746  24424264.9094   24424271.6084   24424264.941
        39.2004         36.9004
    152846.91446    138739.75846  23978110.8624   23978118.6774   23978110.716
        39.7004         37.4004
   -555733.48046   -419227.78246  24044352.6724   24044360.3964   24044352.759
        38.5004         36.4004
 16 12 15  1 57  0.0000000  0  8G05G02G29G13G20G25G06G09
 -23501796.99748 -18283644.80348  20264091.2154   20264094.4924   20264090.745
        51.5004         49.2004
 -18534281.86748 -14422098.41447  21164377.9244   21164379.5684   21164378.452
        48.4004         45.8004
 -19124789.21648 -14886073.31947  21258328.3494   21258331.9114   21258328.057
        48.2004         45.6004
  -1053946.37746   -805761.05945  24080530.2104   24080533.7904   24080529.839
        37.5004         35.7004
  -5769984.74247  -4472283.08546  22791401.8744   22791406.7344   22791402.828
        42.2004         39.7004
  -2253479.00846  -1744047.93146  24441173.9584   24441182.3264   24441174.722
        38.5004         36.2004
    250742.90046    215022.30846  23996739.9944   23996748.2644   23996739.489
        39.2004         36.9004
   -472919.93746   -354697.80246  24060112.3714   24060118.7304   24060111.605
        38.7004         36.6004
 16 12 15  1 57 30.0000000  0  9G05G02G29G13G20G25G07G06G09
 -23510398.70748 -18290347.44248  20262454.1574   20262457.6364   20262453.961
        51.5004         49.2004
 -18486551.80848 -14384906.18447  21173460.4374   21173462.6964   21173461.541
        48.6004         45.8004
 -19169703.36548 -14921071.36847  21249781.7714   21249784.8024   21249781.399
        48.2004         45.6004
  -1167345.66546   -894124.13945  24058950.1194   24058955.9484   24058951.101
        37.8004         35.9004
  -5866352.78847  -4547375.05146  22773064.4134   22773067.9144   22773064.229
        42.2004         39.7004
  -2164358.44346  -1674603.36746  24458133.7994   24458141.5314   24458133.669
        38.2004         36.0004
   5292550.67144   4140393.36343                  25188519.9084
        26.4004         23.4004
    348767.01846    291404.71346  24015393.5994   24015400.1664   24015391.852
        38.7004         36.2004
   -389725.01246   -289870.61246  24075943.0734   24075949.3674   24075943.047
        38.7004         36.6004
 16 12 15  1 58  0.0000000  0  9G05G02G29G13G20G25G07G06G09
 -23518497.15648 -18296657.92948  20260913.2704   20260916.4574   20260912.613
        51.5004         49.2004
 -18438484.27248 -14347450.98847  21182607.6614   21182609.4484   21182608.139
        48.4004         45.8004
 -19214079.41948 -14955650.12847  21241336.7354   21241340.3204   21241336.739
        48.2004         45.4004
  -1280626.22846   -982394.71245  24037393.8964   24037399.7834   24037394.588
        37.6004         35.9004
  -5962497.81247  -4622293.24846  22754767.7634   22754772.3274   22754768.067
        42.2004         39.5004
  -2074988.18246  -1604964.26045  24475139.8324   24475147.1124   24475140.007
        37.8004         35.7004
   5292550.67144   4140393.36344                  25188519.9084
        26.4004         29.8004
    446918.40146    367886.23845  24034070.2194   24034079.1544   24034069.698
        38.2004         35.9004
   -306151.09546   -224748.09546  24091847.2094   24091852.5514   24091847.052
        38.7004         36.4004
 16 12 15  1 58 30.0000000  0  8G05G02G29G13G20G25G06G09
 -23526092.77448 -18302576.59248  20259467.6374   20259471.0774   20259467.390
        51.5004         49.2004
 -18390079.86348 -14309733.29147  21191818.3934   21191820.6164   21191819.214
        48.4004         45.6004
 -19257914.95548 -14989807.69647  21232995.3804   21232999.0684   21232995.208
        48.2004         45.6004
  -1393785.32446  -1070570.61545  24015860.8994   24015866.0884   24015860.815
        37.5004         35.3004
  -6058418.76547  -4697036.83546  22736514.5954   22736519.0924   22736515.285
        42.2004         39.7004
  -1985371.67946  -1535133.26645  24492194.5864   24492201.2544   24492194.330
        37.8004         35.7004
    545195.75846    444465.92145  24052773.0454   24052779.1824   24052771.968
        38.0004         35.9004
   -222201.01746   -159332.47646  24107821.5994   24107828.0034   24107821.380
        38.9004         36.7004
 16 12 15  1 59  0.0000000  0  8G05G02G29G13G20G25G06G09
 -23533185.08948 -18308103.07648  20258118.1174   20258121.5844   20258117.812
        51.5004         49.2004
 -18341338.87448 -14271753.32947  21201093.6154   21201095.6294   21201094.412
        48.4004         45.6004
 -19301208.80048 -15023543.16747  21224756.4384   21224760.4264   21224756.187
        48.2004         45.6004
  -1506819.67546  -1158649.33645  23994352.1934   23994357.5044   23994352.705
        37.6004         35.5004
  -6154114.02547  -4771604.55846  22718304.5374   22718309.5014   22718305.787
        42.3004         39.9004
  -1895511.94346  -1465112.72145  24509296.2894   24509301.7604   24509294.596
        37.8004         35.9004
    643598.37846    521143.24846  24071498.4994   24071504.0454   24071498.647
        38.2004         36.0004
   -137877.13046    -93625.57046  24123868.4194   24123875.7064   24123868.094
        39.0004         36.9004
 16 12 15  1 59 30.0000000  0  8G05G02G29G13G20G25G06G09
 -23539775.62648 -18313238.56348  20256863.9374   20256867.3794   20256863.625
        51.5004         49.4004
 -18292261.34248 -14233511.12347  21210432.9174   21210434.7234   21210433.335
        48.2004         45.6004
 -19343958.92348 -15056854.96447  21216622.0034   21216625.1244   21216621.713
        48.2004         45.6004
  -1619726.56346  -1246628.72945  23972865.6454   23972868.7324   23972865.419
        37.0004         35.0004
  -6249582.10347  -4845995.23846  22700137.3404   22700142.2924   22700137.879
        42.7004         40.2004
  -1805412.13646  -1394905.10245  24526438.6984   24526446.9184   24526438.950
        37.8004         35.7004
    742125.26646    597917.42846  24090247.4894   24090255.0364   24090246.437
        38.5004         36.4004
    -53182.09946    -27629.45246  24139986.1814   24139992.4054   24139986.054
        39.4004         37.1004
 16 12 15  2  0  0.0000000  0  9G05G02G29G13G20G25G07G06G09
 -23545864.59148 -18317983.21748  20255705.4374   20255708.7374   20255704.934
        51.5004         49.4004
 -18242847.94448 -14195007.19847  21219836.1934   21219837.5384   21219836.593
        48.2004         45.4004
 -19386163.63248 -15089741.75547  21208590.6284   21208593.7004   21208590.255
        48.2004         45.6004
  -1732503.18546  -1334506.59545  23951405.2504   23951410.2444   23951404.669
        36.8004         35.0004
  -6344821.94747  -4920208.08346  22682014.0264   22682019.0564   22682014.779
        42.9004         40.2004
  -1715075.70446  -1324513.10845  24543630.2104   24543634.8054   24543630.143
        37.6004         35.3004
   5292550.67144   4140393.363 2                  25188519.908
        26.4004         15.100
    840775.30846    674787.58146  24109020.2024   24109027.4084   24109018.695
        38.9004         36.9004
     31881.40546     38653.78546  24156172.2534   24156178.7294   24156173.141
        39.2004         36.7004
 16 12 15  2  0 30.0000000  0  8G05G02G29G13G20G25G06G09
 -23551452.19648 -18322337.19548  20254642.0934   20254645.5684   20254641.792
        51.7004         49.4004
 -18193098.58348 -14156241.49247  21229302.7024   21229304.7374   21229303.221
        48.1004         45.4004
 -19427820.82648 -15122201.91747  21200663.9254   21200666.6704   21200663.641
        48.4004         45.6004
  -1845146.06846  -1422280.28845  23929970.7624   23929972.5324   23929970.658
        37.0004         34.8004
  -6439832.04747  -4994241.91246  22663933.6994   22663938.7424   22663934.598
        42.9004         40.2004
  -1624505.43546  -1253938.88645  24560865.1284   24560871.3954   24560864.724
        37.5004         35.5004
    939547.78946    751753.10746  24127815.1724   24127823.5304   24127814.734
        39.2004         37.1004
    117311.02646    105222.29846  24172427.9984   24172434.2844   24172428.078
        38.7004         36.4004
 16 12 15  2  1  0.0000000  0  8G05G02G29G13G20G25G06G09
 -23556539.04148 -18326300.98048  20253673.9464   20253677.6204   20253673.645
        51.7004         49.4004
 -18143013.73248 -14117214.37147  21238833.8284   21238835.7224   21238834.593
        48.1004         45.4004
 -19468929.00048 -15154234.26947  21192840.7424   21192843.9814   21192840.684
        48.4004         45.6004
  -1957653.06646  -1509948.09445  23908560.9814   23908565.4634   23908559.510
        37.1004         35.2004
  -6534611.30747  -5068095.87446  22645898.1264   22645903.1724   22645899.233
        42.9004         40.0004
  -1533704.79546  -1183185.17545  24578143.2344   24578151.3404   24578143.214
        37.6004         35.5004
   1038441.54646    828813.12346  24146634.4334   24146642.2364   24146633.684
        39.4004         37.3004
    203103.96846    172073.93146  24188755.1244   24188760.9484   24188754.368
        38.7004         36.4004
 16 12 15  2  1 30.0000000  0  8G05G02G29G13G20G25G06G09
 -23561125.29548 -18329874.68948  20252801.3754   20252804.6684   20252801.009
        51.7004         49.4004
 -18092593.76548 -14077926.11347  21248428.2424   21248430.0184   21248428.859
        48.1004         45.2004
 -19509486.80348 -15185837.75747  21185122.8414   21185126.1254   21185122.927
        48.4004         45.6004
  -2070020.88346  -1597507.40845  23887178.7074   23887182.2564   23887178.854
        37.8004         35.9004
  -6629158.17747  -5141768.75346  22627906.3274   22627911.0534   22627907.109
        42.7004         40.0004
  -1442676.93146  -1112254.39545  24595465.5664   24595472.2774   24595465.119
        37.5004         35.7004
   1137455.66546    905966.92246  24165475.7524   24165484.6084   24165475.208
        39.4004         37.1004
    289257.66346    239206.67746  24205150.7094   24205156.8024   24205150.735
        39.0004         36.9004
 16 12 15  2  2  0.0000000  0  8G05G02G29G13G20G25G06G09
 -23565211.83248 -18333059.00748  20252023.4564   20252027.0084   20252023.103
        51.7004         49.4004
 -18041838.95548 -14038376.93447  21258086.9324   21258088.5614   21258087.195
        48.1004         45.2004
 -19549492.13148 -15217010.74947  21177510.0504   21177513.5394   21177509.761
        48.2004         45.8004
  -2182246.69246  -1684956.02545  23865822.1874   23865826.2024   23865821.216
        37.8004         35.9004
  -6723471.31247  -5215259.48846  22609959.4394   22609963.5894   22609959.885
        42.7004         39.9004
  -1351424.96646  -1041149.01645  24612829.7334   24612837.2874   24612830.129
        37.6004         35.7004
   1236589.26646    983213.79646  24184341.1314   24184348.3364   24184340.803
        39.0004         36.7004
    375769.60446    306618.55646  24221611.4034   24221619.4614   24221611.537
        38.9004         36.6004
 16 12 15  2  2 30.0000000  0  8G05G02G29G13G20G25G06G09
 -23568798.96548 -18335854.18548  20251341.2074   20251344.6784   20251340.700
        51.7004         49.4004
 -17990749.75648 -13998567.19047  21267808.5624   21267810.8134   21267808.923
        48.1004         45.4004
 -19588943.01348 -15247751.71047  21170003.1784   21170005.9944   21170002.825
        48.4004         45.6004
  -2294327.58946  -1772291.70845  23844493.2454   23844497.9284   23844493.997
        37.8004         35.7004
  -6817549.34747  -5288567.03446  22592056.4214   22592061.1874   22592057.122
        42.7004         40.0004
  -1259952.15946   -969871.54946  24630237.6324   24630243.8364   24630237.475
        38.0004         36.0004
   1335841.28046   1060552.95546  24203226.9854   24203235.6364   24203228.303
        38.7004         36.4004
    462637.03246    374307.41046  24238141.5334   24238149.5964   24238141.856
        38.7004         36.2004
 16 12 15  2  3  0.0000000  0  8G05G02G29G13G20G25G06G09
 -23571887.27748 -18338260.67148  20250753.3094   20250756.8884   20250753.066
        51.7004         49.4004
 -17939326.33648 -13958497.01947  21277594.4064   21277596.2384   21277594.976
        48.1004         45.4004
 -19627838.25348 -15278059.69847  21162601.6534   21162604.9564   21162601.243
        48.4004         45.8004
  -2406260.25646  -1859511.86645  23823193.0244   23823197.9564   23823193.476
        38.0004         35.9004
  -6911391.07347  -5361690.44946  22574199.2664   22574204.3834   22574200.019
        42.9004         40.4004
  -1168261.60346   -898424.41046  24647685.9094   24647693.1744   24647685.868
        38.3004         36.2004
   1435210.82346   1137983.69846  24222137.5184   24222145.0524   24222136.619
        38.5004         36.2004
    549857.54346    442271.40746  24254740.8444   24254746.1054   24254740.614
        38.5004         36.2004
 16 12 15  2  3 30.0000000  0  8G05G02G29G13G20G25G06G09
 -23574477.33748 -18340278.90748  20250260.6144   20250264.0114   20250260.244
        51.7004         49.6004
 -17887569.15048 -13918166.77947  21287443.5144   21287445.3234   21287443.893
        48.1004         45.2004
 -19666175.92448 -15307933.22047  21155306.1554   21155309.2424   21155306.094
        48.4004         45.8004
  -2518042.20746  -1946614.60745  23801922.2664   23801926.9044   23801921.636
        38.0004         35.7004
  -7004995.68247  -5434629.10346  22556387.2484   22556391.8824   22556387.944
        43.0004         40.4004
  -1076356.65846   -826810.20246  24665174.3484   24665182.1154   24665175.297
        38.3004         36.4004
   1534696.81746   1215505.21146  24241069.5334   24241077.1364   24241069.111
        38.3004         36.0004
    637428.28346    510508.34646  24271403.5104   24271410.8904   24271403.696
        38.3004         36.2004
 16 12 15  2  4  0.0000000  0  8G05G02G29G13G20G25G06G09
 -23576569.64048 -18341909.27948  20249862.4144   20249865.8074   20249862.157
        51.7004         49.6004
 -17835478.54547 -13877576.72747  21297355.9364   21297357.7204   21297356.415
        47.9004         45.2004
 -19703954.67148 -15337371.21447  21148116.8804   21148120.0134   21148116.860
        48.4004         45.8004
  -2629670.75046  -2033597.79746  23780680.2794   23780684.5344   23780680.712
        38.2004         36.0004
  -7098361.16447  -5507381.42546  22538620.0844   22538624.4594   22538620.977
        43.0004         40.4004
   -984240.42146   -755031.36045  24682703.8244   24682710.8334   24682703.593
        38.0004         35.9004
   1634298.34446   1293116.75046  24260022.9084   24260029.7164   24260023.190
        38.3004         36.2004
    725346.84046    579016.27946  24288134.0464   24288141.9414   24288133.806
        38.2004         36.0004
 16 12 15  2  4 30.0000000  0  8G05G02G29G13G20G25G06G09
 -23578164.76948 -18343152.23748  20249558.6954   20249562.2214   20249558.424
        51.7004         49.6004
 -17783054.67047 -13836726.98047  21307331.9544   21307333.7364   21307332.504
        47.9004         45.1004
 -19741172.53548 -15366372.15547  21141034.5824   21141037.9444   21141034.229
        48.6004         45.8004
  -2741142.65446  -2120458.97146  23759466.5234   23759472.2494   23759465.714
        38.2004         36.0004
  -7191486.08847  -5579946.29546  22520898.8334   22520903.2324   22520899.517
        43.0004         40.6004
   -891915.99546   -683090.27845  24700271.1144   24700279.6284   24700272.372
        37.6004         35.5004
   1734014.54146   1370817.63046  24278998.0934   24279006.0764   24278997.134
        38.2004         36.0004
    813610.55846    647793.17646  24304930.6304   24304937.4884   24304931.068
        38.2004         36.0004
 16 12 15  2  5  0.0000000  0  8G05G02G29G13G20G25G06G09
 -23579263.56648 -18344008.44848  20249349.7804   20249353.2264   20249349.197
        51.7004         49.4004
 -17730298.17347 -13795618.04847  21317370.9594   21317373.0874   21317371.365
        47.9004         45.2004
 -19777827.95148 -15394934.82747  21134059.4154   21134062.6094   21134059.495
        48.6004         45.9004
  -2852455.02546  -2207195.82546  23738284.6794   23738289.5734   23738285.544
        38.2004         36.0004
  -7284369.64247  -5652323.09046  22503224.1074   22503228.2444   22503224.749
        43.0004         40.6004
   -799386.80646   -610989.65645  24717881.1774   24717887.5444   24717879.979
        37.0004         35.0004
   1833844.18346   1448606.92946  24297994.9764   24298003.0394   24297991.994
        38.2004         36.0004
    902216.63846    716836.83545  24321792.8254   24321798.6434   24321793.135
        38.0004         35.9004
 16 12 15  2  5 30.0000000  0  8G05G02G29G13G20G25G06G09
 -23579866.15648 -18344478.00348  20249235.0084   20249238.5734   20249234.683
        51.7004         49.4004
 -17677209.09447 -13754249.96047  21327473.3404   21327475.3354   21327473.998
        47.9004         45.1004
 -19813919.34048 -15423057.99747  21127191.1474   21127194.8074   21127190.965
        48.4004         45.8004
  -2963604.70546  -2293805.94346  23717133.7144   23717138.0344   23717134.682
        38.2004         36.0004
  -7377010.65747  -5724510.90746  22485595.1934   22485599.5904   22485595.514
        43.2004         40.6004
   -706655.84446   -538731.79645  24735526.0364   24735533.5094   24735525.129
        37.1004         35.2004
   1933786.58246   1526484.03745  24317014.0024   24317021.1194   24317012.841
        38.0004         35.9004
    991162.73046    786145.45445  24338717.5264   24338724.2954   24338718.094
        37.6004         35.7004
 16 12 15  2  6  0.0000000  0  8G05G02G29G13G20G25G06G09
 -23579973.20848 -18344561.42548  20249214.6794   20249218.1554   20249214.145
        51.7004         49.4004
 -17623788.17547 -13712623.29347  21337639.2444   21337641.4604   21337639.771
        47.9004         45.1004
 -19849445.33948 -15450740.61247  21120430.9804   21120434.1444   21120430.913
        48.4004         45.8004
  -3074588.87046  -2380287.10345  23696015.9534   23696018.2314   23696012.563
        37.8004         35.7004
  -7469407.35247  -5796508.33546  22468012.3464   22468016.6124   22468013.535
        43.2004         40.7004
   -613726.30846   -466319.21345  24753209.2064   24753217.7684   24753210.039
        37.0004         35.2004
   2033840.62946   1604448.13845  24336053.7534   24336060.0334   24336052.150
        37.8004         35.7004
   1080446.01646    855716.82145  24355706.5854   24355714.6744   24355707.752
        37.5004         35.5004
 16 12 15  2  6 30.0000000  0  9G05G02G29G13G20G25G26G06G09
 -23579585.43848 -18344259.27348  20249288.2894   20249292.0654   20249287.909
        51.7004         49.4004
 -17570035.74347 -13670738.30847  21347868.0014   21347870.4494   21347868.591
        47.9004         45.1004
 -19884404.26248 -15477981.33947  21113778.3024   21113781.9344   21113778.062
        48.4004         45.8004
  -3185404.99646  -2466637.30545  23674925.7264   23674931.1694   23674925.629
        38.0004         35.9004
  -7561558.57847  -5868314.48846  22450476.6104   22450481.1594   22450477.758
        43.4004         40.7004
   -520601.50646   -393754.46245  24770931.5844   24770936.8184   24770931.142
        37.0004         35.2004
   -794444.88546   -613024.10046  24986525.6864   24986532.1794   24986525.231
        38.5004         36.4004
   2134005.39346   1682498.52745  24355114.1734   24355121.4254   24355112.192
        37.8004         35.7004
   1170063.93346    925548.92345  24372761.7034   24372768.7364   24372761.267
        37.3004         35.3004
 16 12 15  2  7  0.0000000  0  9G05G02G29G13G20G25G26G06G09
 -23578703.53748 -18343572.07748  20249456.2254   20249459.7484   20249455.800
        51.5004         49.4004
 -17515952.21347 -13628595.32247  21358159.8604   21358161.7734   21358160.487
        47.7004         45.1004
 -19918794.25048 -15504778.74747  21107234.5014   21107237.5414   21107234.356
        48.4004         45.6004
  -3296049.70146  -2552853.93446  23653872.0914   23653876.8244   23653871.879
        38.3004         36.4004
  -7653463.05847  -5939928.36846  22432988.0394   22432992.6264   22432987.989
        43.4004         40.7004
   -427284.55146   -321039.98345  24788688.9734   24788694.9434   24788689.501
        37.1004         35.2004
   -824626.15646   -636542.00045  24980781.8904   24980788.2314   24980781.870
        38.0004         35.7004
   2234279.84146   1760634.38245  24374194.3934   24374202.2874   24374193.521
        37.6004         35.7004
   1260013.79146    995639.70745  24389881.0124   24389884.1834   24389880.601
        37.3004         35.3004
 16 12 15  2  7 30.0000000  0  9G05G02G29G13G20G25G26G06G09
 -23577327.97048 -18342500.20748  20249718.3484   20249721.4694   20249717.960
        51.7004         49.4004
 -17461537.90247 -13586194.59047  21368514.9814   21368516.4684   21368515.232
        47.7004         44.9004
 -19952614.47248 -15531132.17747  21100798.7494   21100802.1894   21100798.309
        48.4004         45.8004
  -3406520.17046  -2638934.80746  23632849.2874   23632854.3584   23632849.749
        38.7004         36.6004
  -7745119.63947  -6011349.08846  22415545.5434   22415550.5434   22415546.670
        43.4004         40.7004
   -333778.69146   -248178.29845  24806482.4204   24806490.5854   24806482.809
        37.1004         35.3004
   -854259.65246   -659633.08045  24975142.7044   24975147.5514   24975142.478
        37.5004         35.3004
   2334662.94946   1838854.92046  24393297.9164   24393304.9644   24393296.013
        38.2004         36.2004
   1350292.91746   1065987.08545  24407057.2934   24407064.4744   24407057.413
        37.5004         35.5004
 16 12 15  2  8  0.0000000  0  9G05G02G29G13G20G25G26G06G09
 -23575459.39048 -18341044.17748  20250073.7634   20250077.0294   20250073.529
        51.7004         49.4004
 -17406792.89547 -13543536.17747  21378932.6724   21378934.4584   21378932.801
        47.7004         44.9004
 -19985862.81748 -15557039.99347  21094471.6454   21094474.8204   21094471.512
        48.6004         45.9004
  -3516813.37146  -2724877.55646  23611861.2984   23611866.6154   23611861.516
        38.9004         36.7004
  -7836526.82347  -6082575.47146  22398151.8934   22398156.3014   22398153.011
        43.6004         40.7004
   -240087.01246   -175171.84345  24824310.8574   24824317.1234   24824311.580
        37.3004         35.2004
   -883344.33546   -682296.49645  24969609.1384   24969615.1654   24969608.299
        37.3004         35.2004
   2435153.86746   1917159.45246  24412420.2154   24412427.2894   24412419.510
        38.5004         36.4004
   1440898.80046   1136589.04745  24424298.6424   24424306.6574   24424299.004
        37.1004         35.0004
 16 12 15  2  8 30.0000000  0  9G05G02G29G13G20G25G26G06G09
 -23573098.84348 -18339204.79548  20250522.9104   20250526.3294   20250522.564
        51.7004         49.4004
 -17351718.00847 -13500620.71047  21389412.7944   21389414.7524   21389413.307
        47.7004         44.9004
 -20018537.99548 -15582501.18047  21088253.9424   21088257.2794   21088253.593
        48.6004         45.9004
  -3626926.69346  -2810680.14346  23590907.8154   23590913.1114   23590907.916
        38.9004         36.7004
  -7927683.54747  -6153606.68446  22380805.1944   22380810.0944   22380806.363
        43.6004         40.9004
   -146212.91546   -102023.21645  24842173.2774   24842182.3314   24842173.972
        37.5004         35.3004
   -911879.47246   -704531.69945  24964177.4964   24964184.7894   24964178.220
        37.8004         35.9004
   2535751.41446   1995547.07146  24431564.2814   24431570.2794   24431563.022
        38.5004         36.4004
   1531828.63446   1207443.41545  24441604.0224   24441609.1814   24441603.941
        37.3004         35.3004
 16 12 15  2  9  0.0000000  0  9G05G02G29G13G20G25G26G06G09
 -23570246.81148 -18336982.43948  20251065.6374   20251068.9994   20251065.330
        51.7004         49.4004
 -17296313.27247 -13457448.21747  21399955.8444   21399957.6554   21399956.422
        47.5004         44.9004
 -20050638.35748 -15607514.45847  21082145.4664   21082148.6564   21082145.232
        48.6004         45.8004
  -3736856.93846  -2896340.10246  23569988.3364   23569993.4314   23569988.081
        38.5004         36.2004
  -8018588.41947  -6224441.65246  22363506.3624   22363510.4744   22363507.568
        43.6004         40.9004
    -52159.30446    -28734.72045  24860072.2944   24860081.6714   24860072.788
        37.8004         35.7004
   -939863.95146   -726337.81145  24958853.6124   24958860.4094   24958853.071
        37.8004         35.9004
   2636454.88746   2074017.25746  24450727.0904   24450736.1114   24450725.168
        38.2004         36.0004
   1623079.91546   1278548.29845  24458968.3684   24458975.7924   24458968.464
        37.3004         35.3004
 16 12 15  2  9 30.0000000  0  9G05G02G29G13G20G25G26G06G09
 -23566903.75148 -18334377.45948  20251701.6714   20251705.1684   20251701.325
        51.7004         49.4004
 -17240579.34047 -13414019.20547  21410561.4314   21410563.9184   21410561.952
        47.5004         44.7004
 -20082162.76648 -15632078.94747  21076146.5614   21076149.6504   21076146.295
        48.6004         45.8004
  -3846601.13946  -2981855.07646  23549105.1834   23549108.2584   23549105.619
        38.5004         36.4004
  -8109240.06647  -6295079.30046  22346255.8204   22346260.5634   22346256.177
        43.6004         40.7004
     42070.44946     44691.03145  24878004.8024   24878011.7554   24878003.637
        37.8004         35.7004
   -967296.98546   -747714.23645  24953632.0614   24953639.6284   24953631.357
        37.8004         35.9004
   2737263.21546   2152569.15445  24469909.2064   24469917.7744   24469909.810
        37.6004         35.3004
   1714649.97546   1349901.56345  24476393.3774   24476399.6574   24476393.185
        37.1004         35.2004
 16 12 15  2 10  0.0000000  0  9G05G02G29G13G20G25G26G06G09
 -23563070.23748 -18331390.31148  20252431.3744   20252434.7684   20252430.918
        51.7004         49.4004
 -17184516.74547 -13370334.08847  21421229.7334   21421232.2094   21421230.403
        47.5004         44.7004
 -20113109.96148 -15656193.65147  21070257.4104   21070260.7104   21070257.132
        48.6004         45.9004
  -3956156.65646  -3067223.03946  23528257.8154   23528262.1304   23528257.689
        38.7004         36.6004
  -8199637.29947  -6365518.68446  22329054.3564   22329058.7124   22329055.258
        43.7004         41.1004
    136473.23346    118251.60545  24895968.8104   24895976.0444   24895966.788
        37.3004         35.0004
   -994177.83446   -768660.37645  24948516.5714   24948524.6284   24948517.612
        38.0004         35.9004
   2838175.40246   2231201.95545  24489114.0974   24489121.2774   24489112.152
        37.5004         35.5004
   1806536.11946   1421501.15445  24493877.4104   24493884.2174   24493877.875
        37.1004         35.2004
 16 12 15  2 10 30.0000000  0  9G05G02G29G13G20G25G26G06G09
 -23558747.30148 -18328021.78648  20253253.8944   20253257.3464   20253253.586
        51.7004         49.4004
 -17128125.75947 -13326393.07647  21431960.9084   21431962.8484   21431961.190
        47.4004         44.5004
 -20143477.70248 -15679856.83947  21064478.7424   21064481.9154   21064478.428
        48.6004         45.9004
  -4065520.33846  -3152441.54346  23507446.8674   23507450.3964   23507447.110
        38.9004         36.7004
  -8289778.79147  -6435758.78246  22311901.5194   22311905.5594   22311901.761
        43.7004         41.1004
    231045.83346    191944.48245  24913965.9754   24913974.0794   24913965.824
        37.1004         35.2004
  -1020505.49846   -789175.49445  24943508.2424   24943514.3934   24943507.711
        37.8004         35.9004
   2939190.42346   2309914.87845  24508337.9964   24508343.0824   24508337.610
        37.5004         35.3004
   1898735.70646   1493344.96845  24511423.3124   24511429.8834   24511423.677
        37.3004         35.3004
 16 12 15  2 11  0.0000000  0  9G05G02G29G13G20G25G26G06G09
 -23553935.58548 -18324272.40448  20254169.6154   20254173.0714   20254169.230
        51.7004         49.4004
 -17071406.65847 -13282196.40047  21442754.0434   21442755.9484   21442754.796
        47.4004         44.5004
 -20173265.29348 -15703067.96047  21058810.1134   21058813.6844   21058810.238
        48.6004         45.9004
  -4174689.34946  -3237508.31246  23486672.5654   23486676.4694   23486672.866
        39.0004         36.7004
  -8379663.25047  -6505798.58746  22294796.3104   22294800.9344   22294796.539
        43.7004         41.1004
    325785.00246    265767.16845  24931993.4874   24932001.5074   24931993.812
        36.6004         34.6004
  -1046279.30746   -809259.03946  24938604.0914   24938609.9574   24938603.892
        38.3004         36.4004
   3040307.30246   2388707.13345  24527576.5094   24527585.6014   24527577.516
        37.0004         35.0004
   1991246.01546   1565430.90945  24529027.5884   24529032.8574   24529029.154
        37.1004         35.2004
 16 12 15  2 11 30.0000000  0  9G05G02G29G13G20G25G26G06G09
 -23548635.78548 -18320142.69148  20255178.0474   20255181.4074   20255177.682
        51.5004         49.2004
 -17014360.23647 -13237744.66947  21453609.2094   21453611.6034   21453609.766
        47.2004         44.4004
 -20202471.00248 -15725825.66547  21053252.6274   21053255.7494   21053252.327
        48.6004         45.9004
  -4283660.31646  -3322420.77746  23465936.7174   23465939.9434   23465935.868
        38.9004         36.6004
  -8469289.43247  -6575637.13946  22277741.4574   22277745.5594   22277741.784
        43.7004         41.2004
    420687.67746    339717.28645  24950051.2534   24950060.7204   24950052.003
        36.3004         34.5004
  -1071498.43846   -828910.33346  24933802.9894   24933811.1394   24933803.005
        38.3004         36.2004
   3141525.10046   2467578.03545  24546839.8484   24546846.0934   24546840.066
        36.8004         35.0004
   2084064.46746   1637756.96845  24546690.6414   24546694.6054   24546691.987
        36.6004         34.6004
 16 12 15  2 12  0.0000000  0  9G05G02G29G13G20G25G26G06G09
 -23542848.62148 -18315633.21948  20256279.3504   20256282.7174   20256278.950
        51.5004         49.2004
 -16956986.75247 -13193038.08947  21464527.9324   21464529.2744   21464528.391
        47.2004         44.4004
 -20231093.88548 -15748129.21947  21047805.6354   21047809.4534   21047805.289
        48.6004         45.9004
  -4392430.73646  -3407176.95546  23445236.7954   23445242.1714   23445237.163
        39.0004         36.9004
  -8558656.02047  -6645273.40846  22260735.6604   22260739.6764   22260735.869
        43.9004         41.1004
    515750.63846    413792.28045  24968142.9024   24968147.0294   24968143.110
        36.4004         34.6004
  -1096162.16346   -848128.81446  24929110.6504   24929117.6694   24929110.846
        38.3004         36.2004
   3242842.85046   2546526.82745  24566119.5504   24566127.8274   24566117.697
        36.8004         35.0004
   2177188.41046   1710321.02645  24564411.7144   24564418.1584   24564408.760
        36.1004         34.3004
 16 12 15  2 12 30.0000000  0  9G05G02G29G13G20G25G26G06G09
 -23536574.82248 -18310744.54948  20257473.1164   20257476.6704   20257472.825
        51.5004         49.2004
 -16899286.59447 -13148076.95547  21475507.7874   21475509.1184   21475508.511
        47.2004         44.4004
 -20259132.11448 -15769977.20247  21042470.2554   21042473.8854   21042470.217
        48.6004         45.9004
  -4500997.58446  -3491774.48146  23424577.5554   23424582.5354   23424577.456
        39.2004         37.1004
  -8647761.88247  -6714706.52346  22243778.9234   22243783.1404   22243779.548
        43.9004         41.2004
    610970.68946    487989.69245  24986261.5264   24986268.7894   24986262.273
        36.4004         34.6004
  -1120269.63846   -866913.88146  24924523.4094   24924529.0594   24924523.127
        38.2004         36.0004
   3344259.52346   2625552.74645  24585418.0894   24585425.9334   24585419.254
        37.1004         35.3004
   2270615.19045   1783121.06945  24582190.6264   24582196.0084   24582189.521
        35.7004         34.1004
 16 12 15  2 13  0.0000000  0  9G05G02G29G13G20G25G26G06G09
 -23529815.31748 -18305477.40948  20258759.6004   20258762.7834   20258759.203
        51.5004         49.2004
 -16841260.18447 -13102861.60747  21486550.2214   21486551.4164   21486550.637
        47.2004         44.4004
 -20286584.71248 -15791368.85047  21037246.3164   21037249.6554   21037246.071
        48.8004         45.9004
  -4609358.01446  -3576211.17546  23403957.8824   23403961.8544   23403957.587
        39.2004         37.1004
  -8736605.81647  -6783935.53946  22226872.2344   22226876.3134   22226872.645
        43.9004         41.2004
    706344.58546    562307.00145  25004411.9344   25004418.5494   25004410.880
        36.8004         35.0004
  -1143820.26046   -885265.06145  24920041.6854   24920047.5374   24920042.473
        38.0004         35.9004
   3445774.16546   2704654.98445  24604736.6314   24604744.8754   24604736.484
        37.6004         35.9004
   2364342.03946   1856154.94645  24600028.1484   24600031.0164   24600028.970
        36.3004         34.3004
 16 12 15  2 13 30.0000000  0  8G05G02G29G13G20G26G06G09
 -23522570.81148 -18299832.34448  20260137.9734   20260141.3644   20260137.708
        51.5004         49.2004
 -16782908.25347 -13057392.59247  21497653.8794   21497655.9454   21497654.044
        47.2004         44.5004
 -20313450.60348 -15812303.32547  21032133.9504   21032137.2454   21032133.972
        48.8004         46.1004
  -4717508.96146  -3660484.64346  23383378.0314   23383381.7424   23383377.971
        39.6004         37.3004
  -8825186.41347  -6852959.35346  22210016.5314   22210020.8224   22210016.571
        44.1004         41.2004
  -1166813.29146   -903181.75745  24915665.3354   24915672.4874   24915665.745
        38.0004         35.9004
   3547385.68646   2783832.71746  24624072.6114   24624080.0594   24624072.481
        38.0004         36.0004
   2458366.36646   1929420.66245  24617917.3414   24617925.1654   24617919.146
        36.3004         34.5004
 16 12 15  2 14  0.0000000  0  8G05G02G29G13G20G26G06G09
 -23514842.09648 -18293809.97748  20261608.7234   20261612.3614   20261608.434
        51.5004         49.4004
 -16724231.03247 -13011670.10847  21508819.9674   21508821.9774   21508820.445
        47.2004         44.5004
 -20339727.85048 -15832779.11847  21027133.3794   21027137.1354   21027133.069
        48.8004         46.3004
  -4825447.37146  -3744592.49546  23362836.7954   23362841.5454   23362837.095
        39.6004         37.3004
  -8913502.47347  -6921777.04046  22193209.7314   22193214.7774   22193211.013
        44.1004         41.4004
  -1189248.00746   -920663.35346  24911397.0384   24911405.5514   24911396.476
        38.0004         36.0004
   3649093.31346   2863085.31845  24643425.8004   24643433.9694   24643424.441
        38.0004         35.9004
   2552685.65145   2002916.17345  24635864.8344   24635875.1874   24635865.323
        35.7004         34.0004
 16 12 15  2 14 30.0000000  0  9G05G02G29G13G20G07G26G06G09
 -23506629.78148 -18287410.77748  20263171.6754   20263175.0554   20263171.126
        51.5004         49.4004
 -16665229.35647 -12965694.79947  21520046.9904   21520049.3814   21520047.362
        47.2004         44.4004
 -20365415.62148 -15852795.57647  21022245.3144   21022248.8504   21022244.978
        48.9004         46.3004
  -4933170.36346  -3828532.47346  23342338.1104   23342342.6894   23342337.401
        39.9004         37.4004
  -9001552.82247  -6990387.69246  22176454.9754   22176459.4914   22176455.343
        44.1004         41.6004
   -780216.44846   -600363.44545  24963335.2084   24963340.3484   24963335.953
        37.3004         35.2004
  -1211123.84146   -937709.47445  24907234.2454   24907241.0144   24907234.575
        38.0004         35.9004
   3750895.87146   2942411.87045  24662798.1894   24662805.8104   24662798.787
        38.2004         35.9004
   2647297.06445   2076639.29745  24653867.5824   24653876.5844   24653865.773
        35.4004         33.6004
 16 12 15  2 15  0.0000000  0  9G05G02G29G13G20G07G26G06G09
 -23497934.67848 -18280635.37448  20264826.2564   20264829.6074   20264825.780
        51.5004         49.4004
 -16605903.13747 -12919466.60347  21531336.6854   21531338.6674   21531336.971
        47.0004         44.4004
 -20390512.59748 -15872351.67747  21017469.4944   21017473.0334   21017469.021
        48.9004         46.1004
  -5040675.19946  -3912302.45346  23321881.0724   23321885.0904   23321881.609
        40.1004         37.6004
  -9089336.38047  -7058790.46046  22159749.9984   22159754.2604   22159750.464
        44.2004         41.6004
   -829519.77246   -638781.60845  24953954.1004   24953959.2214   24953953.925
        37.3004         35.3004
  -1232440.15046   -954319.61545  24903178.6634   24903184.8854   24903178.054
        37.6004         35.7004
   3852792.43146   3021811.68546  24682190.7574   24682197.1204   24682189.709
        38.5004         36.6004
   2742197.96245   2150587.97245  24671930.6964   24671935.0954   24671930.206
        35.2004         33.8004
 16 12 15  2 15 30.0000000  0  9G05G02G29G13G20G07G26G06G09
 -23488757.73548 -18273484.50748  20266572.4554   20266575.8384   20266572.223
        51.5004         49.2004
 -16546253.25247 -12872986.20447  21542687.6414   21542689.7534   21542688.534
        47.0004         44.2004
 -20415017.97748 -15891446.78747  21012806.6804   21012809.7944   21012806.701
        48.9004         46.3004
  -5147958.81746  -3995900.05646  23301465.3244   23301470.2654   23301465.352
        40.3004         37.8004
  -9176851.67647  -7126984.18746  22143096.7394   22143100.8474   22143097.160
        44.2004         41.6004
   -878402.33146   -676871.89745  24944652.4814   24944655.5984   24944651.535
        37.3004         35.3004
  -1253196.32946   -970493.31345  24899226.0734   24899233.1114   24899228.276
        37.3004         35.2004
   3954781.99946   3101283.98746  24701596.2614   24701606.1614   24701596.966
        38.3004         36.0004
   2837385.66145   2224760.24645  24690041.6534   24690045.9724   24690045.416
        34.9004         33.4004
 16 12 15  2 16  0.0000000  0  9G05G02G29G13G20G07G26G06G09
 -23479099.99948 -18265959.00248  20268410.2344   20268413.7864   20268410.000
        51.5004         49.4004
 -16486280.12547 -12826253.93147  21554100.3164   21554102.1694   21554100.713
        47.0004         44.2004
 -20438930.27648 -15910079.76047  21008256.1044   21008259.3444   21008255.885
        48.9004         46.3004
  -5255018.32246  -4079323.02646  23281091.9854   23281097.6154   23281091.062
        40.3004         37.9004
  -9264097.69047  -7194968.09646  22126493.8404   22126498.4204   22126494.866
        44.4004         41.6004
   -926861.89946   -714632.55845  24935429.1884   24935432.8434   24935430.344
        37.3004         35.5004
  -1273391.83546   -986230.09345  24895385.0874   24895393.4304   24895384.533
        37.5004         35.5004
   4056863.54146   3180827.97245  24721023.3604   24721030.7514   24721021.199
        38.0004         35.7004
   2932857.50945   2299153.89545  24708214.6174   24708216.2094   24708209.861
        34.5004         32.9004
 16 12 15  2 16 30.0000000  0  8G05G02G29G13G20G07G26G06
 -23468961.94248 -18258059.21748  20270339.5904   20270342.9514   20270339.191
        51.5004         49.2004
 -16425984.22247 -12779270.13847  21565574.1354   21565576.3944   21565574.902
        46.9004         44.2004
 -20462247.77648 -15928249.24247  21003818.7304   21003822.1724   21003818.416
        48.8004         46.1004
  -5361850.55746  -4162568.89946  23260763.1454   23260768.2694   23260762.262
        40.1004         37.4004
  -9351072.70947  -7262740.84446  22109942.9774   22109948.0914   22109943.980
        44.4004         41.8004
   -974896.73046   -752062.24545  24926289.3264   24926292.9754   24926288.130
        37.5004         35.5004
  -1293026.02146  -1001529.47745  24891649.9554   24891656.4224   24891649.635
        37.8004         35.9004
   4159036.15846   3260442.90745  24740465.7484   24740473.2664   24740464.541
        37.1004         35.0004
 16 12 15  2 17  0.0000000  0  7G05G02G29G13G20G07G26
 -23458344.40448 -18249785.81248  20272359.8004   20272363.2364   20272359.703
        51.5004         49.1004
 -16365366.23947 -12732035.38347  21577109.5754   21577111.2024   21577109.751
        46.9004         44.0004
 -20484969.74448 -15945954.67747  20999494.9534   20999498.3644   20999494.396
        48.8004         45.9004
  -5468452.68846  -4245635.48446  23240477.1174   23240481.4884   23240478.631
        39.9004         37.4004
  -9437775.72147  -7330301.65246  22093444.0734   22093448.1894   22093444.965
        44.4004         41.6004
  -1022504.70746   -789159.33245  24917231.3634   24917235.1134   24917230.943
        37.8004         35.9004
  -1312098.45846  -1016391.14545  24888021.1354   24888026.6554   24888020.083
        38.0004         35.9004
 16 12 15  2 17 30.0000000  0  7G05G02G29G13G20G07G26
 -23447248.39548 -18241139.57648  20274471.5234   20274474.8184   20274471.200
        51.5004         49.2004
 -16304426.48047 -12684549.88447  21588705.6524   21588707.8554   21588706.248
        46.9004         44.0004
 -20507095.05048 -15963195.18347  20995284.3094   20995288.1694   20995284.165
        48.8004         45.9004
  -5574822.21546  -4328520.84346  23220236.4624   23220239.9754   23220236.254
        40.1004         37.8004
  -9524205.66047  -7397649.67246  22076997.5594   22077000.9594   22076997.939
        44.4004         41.8004
  -1069683.69546   -825922.13045  24908252.0304   24908256.1964   24908252.541
        38.0004         35.9004
  -1330608.59746  -1030814.65945  24884495.4424   24884503.0334   24884496.933
        37.6004         35.3004
 16 12 15  2 18  0.0000000  0  7G05G02G29G13G20G07G26
 -23435674.85548 -18232121.23148  20276673.8624   20276677.1904   20276673.371
        51.5004         49.2004
 -16243165.23247 -12636813.87047  21600363.3254   21600365.9414   21600363.814
        46.9004         44.0004
 -20528622.91248 -15979970.14747  20991188.6394   20991191.4204   20991188.433
        48.8004         46.1004
  -5680955.65846  -4411222.22646  23200038.2724   23200043.8734   23200038.443
        40.1004         37.8004
  -9610361.27147  -7464783.91846  22060602.4624   22060606.9914   22060602.779
        44.4004         41.8004
  -1116431.31246   -862348.79346  24899355.1054   24899361.2304   24899355.293
        38.0004         36.0004
  -1348555.89046  -1044799.58745  24881082.6274   24881087.2104   24881081.455
        37.1004         35.2004
 16 12 15  2 18 30.0000000  0  7G05G02G29G13G20G07G26
 -23423624.66048 -18222731.47448  20278966.9924   20278970.4074   20278966.590
        51.5004         49.2004
 -16181583.36947 -12588828.02247  21612082.1414   21612084.1284   21612082.757
        46.9004         44.0004
 -20549551.75248 -15996278.34447  20987205.3124   20987208.6124   20987204.817
        48.9004         46.1004
  -5786850.43446  -4493737.64646  23179888.0084   23179893.0694   23179886.190
        40.3004         37.8004
  -9696241.42847  -7531703.53246  22044259.7104   22044264.5104   22044260.440
        44.6004         41.9004
  -1162745.38346   -898437.62346  24890542.3534   24890547.2294   24890542.865
        38.3004         36.2004
  -1365939.95846  -1058345.67645  24877774.6794   24877779.4154   24877774.722
        37.1004         35.3004
 16 12 15  2 19  0.0000000  0  7G05G02G29G13G20G07G26
 -23411098.61248 -18212970.92348  20281350.4664   20281353.9664   20281350.118
        51.4004         49.1004
 -16119681.08547 -12540592.50447  21623862.0444   21623863.7374   21623862.961
        46.7004         44.0004
 -20569880.71148 -16012119.09547  20983336.6954   20983340.3334   20983336.703
        48.8004         46.1004
  -5892503.30246  -4576064.54646  23159782.6004   23159786.8354   23159783.294
        40.4004         38.1004
  -9781844.72247  -7598407.40046  22027970.1284   22027974.3324   22027970.610
        44.6004         41.9004
  -1208624.49646   -934187.52846  24881812.3594   24881816.7664   24881812.491
        38.5004         36.4004
  -1382760.33046  -1071452.49745  24874574.6964   24874580.3334   24874573.535
        37.5004         35.7004
 16 12 15  2 19 30.0000000  0  8G05G02G29G13G20G07G26G21
 -23398097.47048 -18202840.16148  20283824.7184   20283827.8854   20283824.100
        51.4004         48.9004
 -16057459.00247 -12492107.78747  21635702.6814   21635704.6984   21635702.768
        46.7004         43.9004
 -20589608.59248 -16027491.47247  20979583.0424   20979586.2614   20979582.554
        48.8004         46.1004
  -5997911.39646  -4658200.70146  23139724.4604   23139729.1704   23139725.901
        40.8004         38.5004
  -9867170.08347  -7664894.70746  22011733.4864   22011737.6254   22011733.636
        44.6004         41.9004
  -1254066.41446   -969596.75446  24873165.7084   24873169.8194   24873166.228
        38.7004         36.6004
  -1399016.60146  -1084119.74145  24871479.7794   24871487.0074   24871479.197
        37.6004         35.7004
    -72182.16844    -32761.16543                                  25459832.547
        26.4004         23.4004
 16 12 15  2 20  0.0000000  0  8G05G02G29G13G20G07G26G21
 -23384622.40548 -18192340.11848  20286388.7664   20286392.2504   20286388.386
        51.4004         49.1004
 -15994917.97047 -12443374.55047  21647603.5974   21647605.5814   21647604.270
        46.7004         44.0004
 -20608734.41048 -16042394.71747  20975943.0814   20975946.7364   20975942.947
        48.8004         46.1004
  -6103071.75246  -4740143.83146  23119713.9844   23119717.7464   23119713.400
        40.9004         38.6004
  -9952216.10447  -7731164.33347  21995549.5904   21995553.6714   21995550.446
        44.8004         42.1004
  -1299068.45246  -1004663.21646  24864601.6074   24864606.2664   24864601.476
        38.7004         36.4004
  -1414708.33446  -1096347.07345  24868493.9834   24868499.9464   24868493.280
        37.5004         35.3004
   -160814.70745   -101825.14045                  25442970.4984   25442966.825
        30.4004         35.5004
 16 12 15  2 20 30.0000000  0  8G05G02G29G13G20G07G26G21
 -23370674.21348 -18181471.40548  20289043.0444   20289046.4224   20289042.628
        51.4004         49.1004
 -15932058.49947 -12394393.16347  21659565.3104   21659567.5504   21659565.898
        46.7004         43.9004
 -20627257.39848 -16056828.22147  20972418.4314   20972421.9884   20972418.307
        48.8004         46.1004
  -6207981.93246  -4821892.02646  23099749.1114   23099753.5694   23099748.602
        40.9004         38.3004
 -10036981.58047  -7797215.35247  21979419.4364   21979423.2294   21979419.786
        44.8004         42.1004
  -1343629.45946  -1039386.04546  24856121.4424   24856126.3574   24856121.001
        38.7004         36.6004
  -1429835.21346  -1108134.29045  24865616.4454   24865620.9744   24865615.256
        37.5004         35.7004
   -249438.26446   -170882.55646  25426102.0894   25426107.1584   25426103.846
        37.3004         36.0004
 16 12 15  2 21  0.0000000  0  8G05G02G29G13G20G07G26G21
 -23356253.89948 -18170234.80048  20291787.3454   20291790.5834   20291787.047
        51.4004         48.9004
 -15868881.10847 -12345164.05447  21671587.2014   21671589.8564   21671588.072
        46.5004         43.7004
 -20645176.38648 -16070791.07047  20969008.8204   20969012.2604   20969008.215
        48.8004         45.9004
  -6312638.74946  -4903442.79946  23079833.7934   23079838.9974   23079833.989
        40.8004         38.3004
 -10121465.36047  -7863046.86946  21963342.1654   21963346.5594   21963342.752
        44.8004         41.9004
  -1387747.14746  -1073763.42346  24847726.6454   24847730.4844   24847726.118
        39.0004         36.7004
  -1444396.90246  -1119481.10245  24862845.5324   24862851.0974   24862845.081
        37.6004         35.5004
   -338052.08446   -239932.36146  25409239.7464   25409243.8284   25409239.890
        37.8004         36.0004
 16 12 15  2 21 30.0000000  0  8G05G02G29G13G20G07G26G21
 -23341362.02748 -18158630.75148  20294620.8394   20294624.4174   20294620.579
        51.4004         48.9004
 -15805386.16547 -12295687.51247  21683670.4854   21683672.3794   21683670.832
        46.5004         43.7004
 -20662490.60648 -16084282.68847  20965713.8714   20965717.4304   20965713.818
        48.8004         46.1004
  -6417038.72446  -4984793.41646  23059967.5374   23059971.3544   23059967.398
        40.9004         38.5004
 -10205666.18347  -7928657.90246  21947319.3334   21947323.5854   21947319.916
        44.8004         41.9004
  -1431419.38446  -1107793.68146  24839416.3874   24839419.2834   24839416.191
        39.2004         37.1004
  -1458393.01446  -1130387.22145  24860180.6554   24860186.9894   24860180.325
        37.6004         35.7004
   -426655.26646   -308973.85845  25392377.6484   25392382.8284   25392378.353
        38.0004         35.9004
 16 12 15  2 22  0.0000000  0  8G05G02G29G13G20G07G26G21
 -23325999.98648 -18146660.33448  20297544.1414   20297547.6174   20297543.855
        51.4004         48.9004
 -15741574.69947 -12245964.32147  21695813.6184   21695815.4774   21695814.225
        46.5004         43.7004
 -20679198.99748 -16097302.22147  20962534.6294   20962537.8324   20962534.041
        48.8004         45.9004
  -6521179.49046  -5065942.03746  23040149.8944   23040154.0264   23040149.264
        40.8004         38.3004
 -10289583.17447  -7994047.76147  21931350.4394   21931354.8634   21931351.190
        44.8004         42.1004
  -1474644.37246  -1141475.40946  24831190.8514   24831193.7864   24831191.129
        39.4004         36.9004
  -1471823.35146  -1140852.43446  24857625.2054   24857632.8384   24857624.927
        38.0004         36.0004
   -515247.21646   -378006.59045  25375520.9424   25375523.8444   25375520.034
        37.6004         35.5004
 16 12 15  2 22 30.0000000  0  8G05G02G29G13G20G07G26G21
 -23310168.55648 -18134324.15348  20300557.0204   20300560.3014   20300556.626
        51.2004         48.9004
 -15677446.71147 -12195994.48147  21708016.7884   21708018.5894   21708017.107
        46.5004         43.7004
 -20695300.37248 -16109848.75547  20959470.4294   20959473.7464   20959470.091
        48.8004         45.9004
  -6625057.92846  -5146886.27146  23020382.3314   23020386.5714   23020383.329
        40.8004         38.3004
 -10373214.85347  -8059215.30447  21915436.0644   21915440.2724   21915436.769
        44.8004         42.1004
  -1517420.24746  -1174807.19146  24823049.6124   24823055.3104   24823049.427
        39.0004         36.6004
  -1484687.54746  -1150876.52446  24855177.8454   24855185.1694   24855177.521
        38.3004         36.4004
   -603826.77446   -447029.66945  25358663.8904   25358666.6314   25358664.199
        37.5004         35.3004
 16 12 15  2 23  0.0000000  0  8G05G02G29G13G20G07G26G21
 -23293868.81148 -18121623.06148  20303658.7064   20303662.1464   20303658.248
        51.2004         48.9004
 -15613003.03147 -12145778.66547  21720279.9514   21720281.5724   21720280.503
        46.5004         43.9004
 -20710794.31648 -16121921.97547  20956522.0754   20956525.5244   20956521.959
        48.8004         46.1004
  -6728671.12346  -5227623.79946  23000666.2014   23000670.1334   23000664.745
        41.1004         38.8004
 -10456560.17247  -8124159.70547  21899575.9184   21899580.6894   21899577.087
        44.9004         42.1004
  -1559744.83146  -1207787.34046  24814995.7574   24815000.3004   24814994.352
        38.7004         36.2004
  -1496985.29446  -1160459.24946  24852837.8624   24852842.5914   24852836.800
        38.3004         36.2004
   -692393.28946   -516042.54845  25341811.9434   25341815.2084   25341811.184
        37.0004         34.8004
 16 12 15  2 23 30.0000000  0  8G05G02G29G13G20G07G26G21
 -23277101.89848 -18108557.94048  20306849.2334   20306852.7734   20306848.855
        51.2004         48.9004
 -15548244.20747 -12095317.26847  21732603.0014   21732605.0364   21732603.505
        46.5004         43.9004
 -20725679.93948 -16133521.17347  20953689.5344   20953692.9904   20953689.214
        48.9004         46.1004
  -6832016.38446  -5308152.53946  22980999.6114   22981003.1724   22980999.760
        41.5004         38.8004
 -10539617.91647  -8188880.02447  21883770.1724   21883774.5304   21883770.929
        44.9004         42.3004
  -1601616.59946  -1240414.66145  24807027.5074   24807032.7724   24807026.091
        38.2004         35.9004
  -1508716.55646  -1169600.53846  24850604.2554   24850611.7644   24850604.696
        38.7004         36.7004
   -780945.87746   -585044.56745  25324960.4134   25324963.2964   25324961.192
        36.4004         34.5004
 16 12 15  2 24  0.0000000  0  8G05G02G29G13G20G07G26G21
 -23259868.28348 -18095129.15348  20310128.6594   20310132.1614   20310128.307
        51.2004         48.9004
 -15483170.72847 -12044610.68547  21744985.8954   21744988.4254   21744986.628
        46.5004         43.7004
 -20739955.93448 -16144645.33347  20950972.6574   20950976.5224   20950972.421
        48.9004         46.1004
  -6935090.84346  -5388470.26146  22961384.8134   22961389.5624   22961386.327
        41.5004         38.8004
 -10622386.64147  -8253375.13247  21868020.6844   21868024.6534   21868020.870
        45.1004         42.3004
  -1643032.93646  -1272687.08445  24799146.4214   24799150.0234   24799147.599
        37.8004         35.5004
  -1519881.00146  -1178300.13246  24848479.7624   24848487.9534   24848479.301
        39.0004         36.9004
   -869483.73746   -654035.09845  25308111.6964   25308115.8734   25308112.255
        36.4004         34.6004
 16 12 15  2 24 30.0000000  0  8G05G02G29G13G20G07G26G21
 -23242169.26048 -18081337.70648  20313496.6954   20313500.3114   20313496.269
        51.2004         48.9004
 -15417783.32047 -11993659.49447  21757429.0174   21757431.1554   21757429.646
        46.5004         43.9004
 -20753621.42748 -16155293.78047  20948372.3004   20948375.6164   20948372.190
        48.9004         46.1004
  -7037891.43346  -5468574.58346  22941823.7544   22941826.7614   22941822.378
        41.5004         38.8004
 -10704865.36547  -8317644.25847  21852325.4204   21852329.4504   21852326.140
        45.1004         42.5004
  -1683992.40246  -1304603.49745  24791352.5244   24791356.1664   24791352.123
        37.6004         35.7004
  -1530478.43146  -1186557.89146  24846463.6264   24846470.1204   24846463.647
        39.2004         36.9004
   -958005.78346   -723013.29645  25291266.7994   25291271.7244   25291265.880
        36.3004         34.6004
 16 12 15  2 25  0.0000000  0  8G05G02G29G13G20G07G26G21
 -23224005.97448 -18067184.50448  20316953.1194   20316956.7504   20316952.666
        51.2004         48.9004
 -15352082.98147 -11942464.44647  21769931.0804   21769933.3864   21769931.395
        46.5004         43.7004
 -20766675.97148 -16165466.16247  20945887.8034   20945891.6104   20945887.527
        48.9004         46.1004
  -7140415.20146  -5548463.19946  22922312.3924   22922317.2774   22922313.703
        41.5004         39.0004
 -10787053.01947  -8381686.57947  21836685.5624   21836689.8694   21836685.892
        45.3004         42.5004
  -1724493.15246  -1336162.48445  24783644.5204   24783650.3964   24783643.619
        37.5004         35.3004
  -1540508.76946  -1194373.78546  24844555.1534   24844562.0624   24844555.364
        39.2004         36.9004
  -1046511.77446   -791978.99745  25274424.7564   25274427.6574   25274424.700
        36.3004         34.5004
 16 12 15  2 25 30.0000000  0  8G05G02G29G13G20G07G26G21
 -23205379.19848 -18052670.14548  20320497.6414   20320501.1504   20320497.282
        51.2004         48.9004
 -15286069.69947 -11891025.55947  21782493.4644   21782495.3794   21782493.524
        46.3004         43.5004
 -20779118.84248 -16175161.91647  20943520.2804   20943523.9054   20943519.975
        48.9004         46.3004
  -7242659.32746  -5628133.91446  22902857.3644   22902861.0674   22902856.697
        41.6004         39.2004
 -10868948.36547  -8445501.11947  21821101.0624   21821105.3374   21821102.012
        45.3004         42.6004
  -1764533.28746  -1367362.56045  24776024.1354   24776029.5104   24776024.248
        37.1004         35.0004
  -1549971.83846  -1201747.65546  24842754.5964   24842760.8764   24842754.131
        39.2004         37.1004
  -1135000.17745   -860931.00545  25257583.9704   25257588.0904   25257584.729
        35.9004         34.1004
 16 12 15  2 26  0.0000000  0  8G05G02G29G13G20G07G26G21
 -23186289.93648 -18037795.39048  20324130.1604   20324133.5474   20324129.914
        51.2004         48.7004
 -15219744.00547 -11839343.22647  21795114.3444   21795116.7874   21795115.102
        46.3004         43.5004
 -20790949.18048 -16184380.37247  20941269.1224   20941272.5454   20941268.787
        48.9004         46.3004
  -7344620.76946  -5707584.34946  22883453.8874   22883458.3914   22883455.028
        41.8004         39.3004
 -10950550.11647  -8509086.89047  21805573.0494   21805577.1824   21805573.420
        45.3004         42.6004
  -1804110.94846  -1398202.29045  24768494.4504   24768499.1044   24768494.656
        37.1004         35.2004
  -1558867.48246  -1208679.35846  24841061.7424   24841068.3684   24841061.204
        39.2004         36.7004
  -1223470.35145   -929868.80145  25240749.8974   25240750.2914   25240750.300
        35.9004         34.3004
 16 12 15  2 26 30.0000000  0  8G05G02G29G13G20G07G26G21
 -23166739.45748 -18022561.25248  20327850.5614   20327853.9034   20327850.058
        51.2004         48.9004
 -15153107.03347 -11787418.33847  21807794.8094   21807797.1804   21807795.501
        46.2004         43.5004
 -20802166.38148 -16193121.06047  20939134.3384   20939138.0604   20939134.083
        48.9004         46.3004
  -7446296.84547  -5786812.41646  22864106.4224   22864110.1774   22864105.625
        42.0004         39.3004
 -11031857.49047  -8572443.27947  21790100.4704   21790104.9794   21790101.024
        45.5004         43.0004
  -1843224.47046  -1428680.36645  24761051.1214   24761054.8824   24761052.119
        37.1004         35.2004
  -1567195.76746  -1215168.95346  24839476.9014   24839484.1704   24839476.618
        39.4004         37.1004
  -1311921.48646   -998791.75845  25223917.6354   25223921.8394   25223918.694
        36.1004         34.3004
 16 12 15  2 27  0.0000000  0  8G05G02G29G13G20G07G26G21
 -23146728.61348 -18006968.39248  20331658.5514   20331661.8834   20331658.154
        51.2004         48.9004
 -15086159.04247 -11735251.10747  21820535.2244   21820536.9774   21820535.972
        46.3004         43.7004
 -20812769.59848 -16201383.32247  20937116.8504   20937120.3114   20937116.677
        48.9004         46.3004
  -7547684.13347  -5865815.47046  22844812.4544   22844817.3404   22844812.721
        42.0004         39.5004
 -11112868.88047  -8635569.02047  21774684.4454   21774688.9264   21774685.673
        45.6004         43.0004
  -1881871.80946  -1458795.18745  24753696.4704   24753700.0564   24753696.315
        37.0004         34.8004
  -1574956.43546  -1221216.25746  24838000.2064   24838006.6874   24838000.304
        39.2004         36.9004
  -1400352.55446  -1067699.10645  25207089.3934   25207094.2874   25207091.097
        36.1004         34.3004
 16 12 15  2 27 30.0000000  0  8G05G02G29G13G20G07G26G21
 -23126258.70648 -17991017.81648  20335553.8914   20335557.2784   20335553.566
        51.2004         48.9004
 -15018901.19747 -11682842.42847  21833333.4924   21833336.1254   21833333.879
        46.3004         43.7004
 -20822758.11348 -16209166.58947  20935216.0734   20935219.5194   20935215.888
        48.9004         46.3004
  -7648780.37146  -5944591.72246  22825574.3614   22825578.1884   22825574.134
        41.8004         39.3004
 -11193583.33447  -8698463.38747  21759325.0724   21759329.3404   21759325.726
        45.6004         43.0004
  -1920051.38346  -1488545.51645  24746432.0864   24746435.7964   24746431.315
        37.0004         35.2004
  -1582149.53346  -1226821.31146  24836632.0054   24836637.9494   24836631.544
        39.2004         36.9004
  -1488762.96846  -1136590.36045  25190266.6484   25190272.0714   25190268.601
        36.4004         34.8004
 16 12 15  2 28  0.0000000  0  8G05G02G29G13G20G07G26G21
 -23105330.59948 -17974710.20548  20339536.4034   20339539.7804   20339535.976
        51.2004         48.9004
 -14951333.67447 -11630192.43947  21846191.2994   21846193.9644   21846192.092
        46.3004         43.5004
 -20832131.08948 -16216470.21647  20933432.6374   20933436.1664   20933432.647
        49.1004         46.5004
  -7749582.57146  -6023138.87746  22806392.7524   22806396.1104   22806392.729
        41.8004         39.2004
 -11273999.54747  -8761125.36247  21744022.0464   21744026.6334   21744022.676
        45.6004         43.0004
  -1957761.10446  -1517929.68745  24739255.5394   24739260.7724   24739255.282
        37.3004         35.3004
  -1588775.07546  -1231984.08946  24835369.4514   24835377.4654   24835369.455
        39.0004         36.7004
  -1577151.84846  -1205464.84045  25173447.3824   25173453.2024   25173447.344
        36.6004         34.8004
 16 12 15  2 28 30.0000000  0  8G05G02G29G13G20G07G26G21
 -23083945.52948 -17958046.52048  20343605.9944   20343609.1384   20343605.690
        51.2004         48.9004
 -14883457.11947 -11577301.64547  21859108.0424   21859110.8914   21859108.212
        46.2004         43.5004
 -20840888.22848 -16223293.96447  20931765.8994   20931769.6754   20931765.636
        49.1004         46.5004
  -7850087.49247  -6101454.40146  22787267.4174   22787270.4294   22787267.314
        42.0004         39.3004
 -11354116.85147  -8823554.41947  21728776.6064   21728780.7144   21728777.375
        45.6004         43.0004
  -1994999.24946  -1546946.40845  24732169.5824   24732172.9124   24732169.373
        37.5004         35.5004
  -1594833.08846  -1236704.64546  24834218.2844   24834224.7604   24834217.571
        39.0004         36.7004
  -1665517.89246  -1274321.57345  25156632.0944   25156635.4834   25156631.489
        36.6004         34.8004
 16 12 15  2 29  0.0000000  0  8G05G02G29G13G20G07G26G21
 -23062104.10548 -17941027.23048  20347762.1154   20347765.5924   20347762.052
        51.2004         48.9004
 -14815272.32247 -11524170.66047  21872083.1134   21872085.6854   21872083.346
        46.2004         43.5004
 -20849028.55148 -16229637.08747  20930217.0954   20930220.4534   20930216.598
        49.1004         46.3004
  -7950292.63847  -6179536.32146  22768198.3814   22768203.1154   22768198.123
        42.0004         39.7004
 -11433933.71547  -8885749.37147  21713588.1284   21713592.3944   21713588.523
        45.8004         43.2004
  -2031764.04746  -1575594.25145  24725172.7954   24725176.7524   24725172.928
        37.6004         35.7004
  -1600323.51746  -1240982.93546  24833172.8594   24833179.1784   24833173.024
        39.2004         36.9004
  -1753860.16046  -1343159.72945  25139819.6024   25139825.0914   25139821.126
        37.0004         35.2004
 16 12 15  2 29 30.0000000  0  8G05G02G29G13G20G07G26G21
 -23039807.74448 -17923653.44248  20352005.0264   20352008.4264   20352004.303
        51.2004         48.9004
 -14746779.89647 -11470799.96147  21885116.6204   21885119.4814   21885117.479
        46.2004         43.5004
 -20856552.00448 -16235499.52347  20928785.0464   20928788.8264   20928784.715
        48.9004         46.3004
  -8050195.08847  -6257382.36846  22749187.5574   22749192.0314   22749187.983
        42.3004         39.7004
 -11513448.94047  -8947709.27447  21698456.9394   21698461.4054   21698457.545
        45.8004         43.2004
  -2068053.96246  -1603872.08645  24718266.2584   24718270.7214   24718267.035
        37.8004         35.9004
  -1605246.43646  -1244819.02346  24832235.6954   24832243.0014   24832235.901
        39.2004         36.9004
  -1842178.28346  -1411979.07945  25123013.2104   25123017.5334   25123014.815
        37.3004         35.3004
